[
  {
    "id": "1001",
    "name": "Sesvennahütte",
    "elevation": "2262 m",
    "link": "https://www.alpenverein.at/huetten/index.php?huette_nr=1001",
    "phone": "+39/375/9738950 (nur WhatsApp)",
    "lat": 46.73465,
    "lon": 10.4355166666667,
    "gebirgsgruppe": "Sesvennagruppe",
    "bundesland": "Italien/Südtirol",
    "hutReservationId": "276",
    "websites": [
      "http://www.sesvennahuette.it"
    ]
  },
  {
    "id": "1002",
    "name": "Guido-Lammer-Biwak",
    "elevation": "2706 m",
    "link": "https://www.alpenverein.at/huetten/index.php?huette_nr=1002",
    "phone": null,
    "lat": 46.7262166666667,
    "lon": 11.0684,
    "gebirgsgruppe": "Ötztaler Alpen",
    "bundesland": "Italien/Südtirol",
    "hutReservationId": null,
    "websites": [
      "http://www.alpenverein.it"
    ]
  },
  {
    "id": "1003",
    "name": "Oberetteshütte",
    "elevation": "2680 m",
    "link": "https://www.alpenverein.at/huetten/index.php?huette_nr=1003",
    "phone": "+39/0473/830280",
    "lat": 46.7648,
    "lon": 10.7112,
    "gebirgsgruppe": "Ötztaler Alpen",
    "bundesland": "Italien/Südtirol",
    "hutReservationId": "230",
    "websites": [
      "http://www.oberettes.it"
    ]
  },
  {
    "id": "1005",
    "name": "Meraner Hütte",
    "elevation": "1937 m",
    "link": "https://www.alpenverein.at/huetten/index.php?huette_nr=1005",
    "phone": "+39/0473/279405",
    "lat": 46.6832833333333,
    "lon": 11.2819333333333,
    "gebirgsgruppe": "Sarntaler Alpen",
    "bundesland": "Italien/Südtirol",
    "hutReservationId": "126",
    "websites": [
      "http://www.meranerhuette.it"
    ]
  },
  {
    "id": "1006",
    "name": "Radlseehütte",
    "elevation": "2284 m",
    "link": "https://www.alpenverein.at/huetten/index.php?huette_nr=1006",
    "phone": "+39/0472/855230",
    "lat": 46.7079166666667,
    "lon": 11.5801166666667,
    "gebirgsgruppe": "Sarntaler Alpen",
    "bundesland": "Italien/Südtirol",
    "hutReservationId": "285",
    "websites": [
      "http://www.radlseehuette.it"
    ]
  },
  {
    "id": "1007",
    "name": "Brixner Hütte",
    "elevation": "2282 m",
    "link": "https://www.alpenverein.at/huetten/index.php?huette_nr=1007",
    "phone": "+39/0472/677001",
    "lat": 46.9128833333333,
    "lon": 11.6203833333333,
    "gebirgsgruppe": "Zillertaler Alpen",
    "bundesland": "Italien/Südtirol",
    "hutReservationId": "389",
    "websites": [
      "http://www.brixnerhuette.it"
    ]
  },
  {
    "id": "1008",
    "name": "Hochfeilerhütte",
    "elevation": "2715 m",
    "link": "https://www.alpenverein.at/huetten/index.php?huette_nr=1008",
    "phone": "+39/0472/674420 (Sat. Telefon)",
    "lat": 46.96216,
    "lon": 11.7084833333333,
    "gebirgsgruppe": "Zillertaler Alpen",
    "bundesland": "Italien/Südtirol",
    "hutReservationId": "257",
    "websites": [
      "http://www.hochfeilerhuette.com",
      "http://www.hochfeilerhuette.it"
    ]
  },
  {
    "id": "1009",
    "name": "G. Messner-Hochferner Biwak",
    "elevation": "2510 m",
    "link": "https://www.alpenverein.at/huetten/index.php?huette_nr=1009",
    "phone": null,
    "lat": 46.9861666666667,
    "lon": 11.7053833333333,
    "gebirgsgruppe": "Zillertaler Alpen",
    "bundesland": "Italien/Südtirol",
    "hutReservationId": null,
    "websites": [
      "http://www.alpenverein.it"
    ]
  },
  {
    "id": "1010",
    "name": "Sterzinger Hütte",
    "elevation": "2348 m",
    "link": "https://www.alpenverein.at/huetten/index.php?huette_nr=1010",
    "phone": null,
    "lat": 46.9197666666667,
    "lon": 11.57175,
    "gebirgsgruppe": "Zillertaler Alpen",
    "bundesland": "Italien/Südtirol",
    "hutReservationId": null,
    "websites": [
      "http://www.sterzingerhuette.it"
    ]
  },
  {
    "id": "1012",
    "name": "Walter-Brenninger-Biwak",
    "elevation": "2156 m",
    "link": "https://www.alpenverein.at/huetten/index.php?huette_nr=1012",
    "phone": "+39/0472/833940 (Sektion)",
    "lat": 46.93865,
    "lon": 11.6955166666667,
    "gebirgsgruppe": "Zillertaler Alpen",
    "bundesland": "Italien/Südtirol",
    "hutReservationId": null,
    "websites": []
  },
  {
    "id": "1013",
    "name": "Rieserfernerhütte",
    "elevation": "2798 m",
    "link": "https://www.alpenverein.at/huetten/index.php?huette_nr=1013",
    "phone": "+39/0474/492125",
    "lat": 46.8899833333333,
    "lon": 12.0789833333333,
    "gebirgsgruppe": "Rieserfernergruppe",
    "bundesland": "Italien/Südtirol",
    "hutReservationId": "412",
    "websites": [
      "http://www.rieserfernerhuette.it"
    ]
  },
  {
    "id": "1014",
    "name": "Marteller Hütte",
    "elevation": "2585 m",
    "link": "https://www.alpenverein.at/huetten/index.php?huette_nr=1014",
    "phone": "+39/0473/744790",
    "lat": 46.4696333333333,
    "lon": 10.6730333333333,
    "gebirgsgruppe": "Ortler-Gruppe",
    "bundesland": "Italien/Südtirol",
    "hutReservationId": "442",
    "websites": [
      "http://www.martellerhuette.it"
    ]
  },
  {
    "id": "1015",
    "name": "Dreischusterhütte",
    "elevation": "1639 m",
    "link": "https://www.alpenverein.at/huetten/index.php?huette_nr=1015",
    "phone": "+39/0474/966610",
    "lat": 46.6745833333333,
    "lon": 12.2972166666667,
    "gebirgsgruppe": "Dolomiten",
    "bundesland": "Italien/Südtirol",
    "hutReservationId": "310",
    "websites": [
      "http://www.dreischusterhuette.it"
    ]
  },
  {
    "id": "1017",
    "name": "Schutzhütte Dibaita",
    "elevation": "1950 m",
    "link": "https://www.alpenverein.at/huetten/index.php?huette_nr=1017",
    "phone": "+39/0471/729090",
    "lat": 46.546959,
    "lon": 11.606907,
    "gebirgsgruppe": "Dolomiten",
    "bundesland": "Italien/Südtirol",
    "hutReservationId": null,
    "websites": [
      "http://www.dibaita-puflatschhuette.com"
    ]
  },
  {
    "id": "1018",
    "name": "Schlernbödelehütte",
    "elevation": "1693 m",
    "link": "https://www.alpenverein.at/huetten/index.php?huette_nr=1018",
    "phone": "+39 0471 705345",
    "lat": 46.5220333333333,
    "lon": 11.5836833333333,
    "gebirgsgruppe": "Dolomiten",
    "bundesland": "Italien/Südtirol",
    "hutReservationId": "284",
    "websites": [
      "http://www.schlernboedelehuette.it"
    ]
  },
  {
    "id": "1204",
    "name": "Dachstein-Südwand-Hütte",
    "elevation": "1910 m",
    "link": "https://www.alpenverein.at/huetten/index.php?huette_nr=1204",
    "phone": "+43/3687/81509",
    "lat": 47.4597833333333,
    "lon": 13.6152833333333,
    "gebirgsgruppe": "Dachsteingebirge",
    "bundesland": "Steiermark",
    "hutReservationId": null,
    "websites": [
      "http://www.alpenbad-ramsau.at"
    ]
  },
  {
    "id": "1206",
    "name": "Similaunhütte",
    "elevation": "3018 m",
    "link": "https://www.alpenverein.at/huetten/index.php?huette_nr=1206",
    "phone": "+39/0473/669711 Sattelit: +43 720 920 439",
    "lat": 46.772378,
    "lon": 10.854676,
    "gebirgsgruppe": "Ötztaler Alpen",
    "bundesland": "Italien/Südtirol",
    "hutReservationId": null,
    "websites": [
      "http://www.similaunhuette.com"
    ]
  },
  {
    "id": "1207",
    "name": "Adolf-Pichler-Hütte",
    "elevation": "1977 m",
    "link": "https://www.alpenverein.at/huetten/index.php?huette_nr=1207",
    "phone": "+43 0 720702724",
    "lat": 47.1667833333333,
    "lon": 11.2674833333333,
    "gebirgsgruppe": "Stubaier Alpen",
    "bundesland": "Tirol",
    "hutReservationId": null,
    "websites": [
      "http://www.adolf-pichler-huette.at"
    ]
  },
  {
    "id": "1210",
    "name": "Müllerhütte (Rif. Cima Libera)",
    "elevation": "3148 m",
    "link": "https://www.alpenverein.at/huetten/index.php?huette_nr=1210",
    "phone": null,
    "lat": 46.96315,
    "lon": 11.1776666666667,
    "gebirgsgruppe": "Stubaier Alpen",
    "bundesland": "Italien/Südtirol",
    "hutReservationId": "570",
    "websites": [
      "http://www.muellerhuette.eu"
    ]
  },
  {
    "id": "1211",
    "name": "Becherhaus (Rif. Biasi al Bicchiere)",
    "elevation": "3195 m",
    "link": "https://www.alpenverein.at/huetten/index.php?huette_nr=1211",
    "phone": "+39/0472/656377 (Hütte)",
    "lat": 46.96093,
    "lon": 11.192226,
    "gebirgsgruppe": "Stubaier Alpen",
    "bundesland": "Italien/Südtirol",
    "hutReservationId": null,
    "websites": [
      "http://www.becherhaus.it"
    ]
  },
  {
    "id": "1213",
    "name": "Kemater Alm",
    "elevation": "1673 m",
    "link": "https://www.alpenverein.at/huetten/index.php?huette_nr=1213",
    "phone": "+43/664/9156634",
    "lat": 47.1773666666667,
    "lon": 11.2654333333333,
    "gebirgsgruppe": "Stubaier Alpen",
    "bundesland": "Tirol",
    "hutReservationId": null,
    "websites": [
      "http://www.kemater-alm.at"
    ]
  },
  {
    "id": "1214",
    "name": "Weißkugelhütte (Rif. Pio XI)",
    "elevation": "2557 m",
    "link": "https://www.alpenverein.at/huetten/index.php?huette_nr=1214",
    "phone": "+39 346 147 2278 (nur über Whatsapp erreichbar)",
    "lat": 46.825615,
    "lon": 10.705019,
    "gebirgsgruppe": "Ötztaler Alpen",
    "bundesland": "Italien/Südtirol",
    "hutReservationId": null,
    "websites": []
  },
  {
    "id": "1216",
    "name": "Lasörlinghütte",
    "elevation": "2350 m",
    "link": "https://www.alpenverein.at/huetten/index.php?huette_nr=1216",
    "phone": null,
    "lat": 46.9570166666667,
    "lon": 12.3768833333333,
    "gebirgsgruppe": "Lasörlinggruppe",
    "bundesland": "Tirol",
    "hutReservationId": null,
    "websites": [
      "http://www.lasoerlinghuette.com"
    ]
  },
  {
    "id": "1217",
    "name": "Schutzhütte Schöne Aussicht (Rif. Bella Vista)",
    "elevation": "2842 m",
    "link": "https://www.alpenverein.at/huetten/index.php?huette_nr=1217",
    "phone": "+39/0473/662140",
    "lat": 46.783473,
    "lon": 10.792067,
    "gebirgsgruppe": "Ötztaler Alpen",
    "bundesland": "Italien/Südtirol",
    "hutReservationId": null,
    "websites": [
      "http://www.schoeneaussicht.it"
    ]
  },
  {
    "id": "1220",
    "name": "Schlicker Alm",
    "elevation": "1616 m",
    "link": "https://www.alpenverein.at/huetten/index.php?huette_nr=1220",
    "phone": "+43/5225/62409",
    "lat": 47.1548,
    "lon": 11.3024166666667,
    "gebirgsgruppe": "Stubaier Alpen",
    "bundesland": "Tirol",
    "hutReservationId": null,
    "websites": []
  },
  {
    "id": "1221",
    "name": "Silvrettahütte",
    "elevation": "2341 m",
    "link": "https://www.alpenverein.at/huetten/index.php?huette_nr=1221",
    "phone": "+41/81/4221306",
    "lat": 46.8545333333333,
    "lon": 10.04145,
    "gebirgsgruppe": "Silvretta",
    "bundesland": "Schweiz",
    "hutReservationId": "80",
    "websites": [
      "http://www.silvrettahuette.ch"
    ]
  },
  {
    "id": "1223",
    "name": "Birgitzköpflhütte",
    "elevation": "2035 m",
    "link": "https://www.alpenverein.at/huetten/index.php?huette_nr=1223",
    "phone": "+43/512/584144",
    "lat": 47.19505,
    "lon": 11.3161333333333,
    "gebirgsgruppe": "Stubaier Alpen",
    "bundesland": "Tirol",
    "hutReservationId": null,
    "websites": [
      "http://www.naturfreunde.at"
    ]
  },
  {
    "id": "1225",
    "name": "Fieglhütte",
    "elevation": "1956 m",
    "link": "https://www.alpenverein.at/huetten/index.php?huette_nr=1225",
    "phone": null,
    "lat": 46.9597166666667,
    "lon": 11.0632166666667,
    "gebirgsgruppe": "Stubaier Alpen",
    "bundesland": "Tirol",
    "hutReservationId": null,
    "websites": []
  },
  {
    "id": "1226",
    "name": "Fotscher Schihütte",
    "elevation": "1520 m",
    "link": "https://www.alpenverein.at/huetten/index.php?huette_nr=1226",
    "phone": null,
    "lat": 47.1721333333333,
    "lon": 11.21965,
    "gebirgsgruppe": "Stubaier Alpen",
    "bundesland": "Tirol",
    "hutReservationId": null,
    "websites": []
  },
  {
    "id": "1227",
    "name": "Grohmannhütte (Rif. Vedretta Piana)",
    "elevation": "2254 m",
    "link": "https://www.alpenverein.at/huetten/index.php?huette_nr=1227",
    "phone": null,
    "lat": 46.9517333333333,
    "lon": 11.23125,
    "gebirgsgruppe": "Stubaier Alpen",
    "bundesland": "Italien/Südtirol",
    "hutReservationId": null,
    "websites": [
      "http://grohmannhuette.com"
    ]
  },
  {
    "id": "1229",
    "name": "Tribulaunhütte",
    "elevation": "2064 m",
    "link": "https://www.alpenverein.at/huetten/index.php?huette_nr=1229",
    "phone": "+43/664/4050951 oder +43/664/3811240",
    "lat": 47.0020666666667,
    "lon": 11.3466666666667,
    "gebirgsgruppe": "Stubaier Alpen",
    "bundesland": "Tirol",
    "hutReservationId": null,
    "websites": [
      "http://www.tribulaunhuette.at"
    ]
  },
  {
    "id": "1230",
    "name": "Tribulaunhütte (Rif. Calciati al Tribulaun)",
    "elevation": "2368 m",
    "link": "https://www.alpenverein.at/huetten/index.php?huette_nr=1230",
    "phone": "+39/0472/632470",
    "lat": 46.985666,
    "lon": 11.325507,
    "gebirgsgruppe": "Stubaier Alpen",
    "bundesland": "Italien/Südtirol",
    "hutReservationId": null,
    "websites": [
      "http://www.tribulaunhuette.com"
    ]
  },
  {
    "id": "1231",
    "name": "Padasterjochhaus",
    "elevation": "2232 m",
    "link": "https://www.alpenverein.at/huetten/index.php?huette_nr=1231",
    "phone": null,
    "lat": 47.0809666666667,
    "lon": 11.36365,
    "gebirgsgruppe": "Stubaier Alpen",
    "bundesland": "Tirol",
    "hutReservationId": null,
    "websites": []
  },
  {
    "id": "1232",
    "name": "Schutzhütte Schneeberg",
    "elevation": "2355 m",
    "link": "https://www.alpenverein.at/huetten/index.php?huette_nr=1232",
    "phone": "+39/0473/932900",
    "lat": 46.899009,
    "lon": 11.181192,
    "gebirgsgruppe": "Stubaier Alpen",
    "bundesland": "Italien/Südtirol",
    "hutReservationId": null,
    "websites": [
      "http://schneeberghuette.it/"
    ]
  },
  {
    "id": "1234",
    "name": "Hochzeigerhaus",
    "elevation": "1876 m",
    "link": "https://www.alpenverein.at/huetten/index.php?huette_nr=1234",
    "phone": "+43/5414/87335",
    "lat": 47.1559333333333,
    "lon": 10.77305,
    "gebirgsgruppe": "Ötztaler Alpen",
    "bundesland": "Tirol",
    "hutReservationId": null,
    "websites": []
  },
  {
    "id": "1235",
    "name": "Hochganghaus",
    "elevation": "1839 m",
    "link": "https://www.alpenverein.at/huetten/index.php?huette_nr=1235",
    "phone": "+39/0473/443310",
    "lat": 46.712823,
    "lon": 11.085947,
    "gebirgsgruppe": "Ötztaler Alpen",
    "bundesland": "Italien/Südtirol",
    "hutReservationId": null,
    "websites": [
      "http://www.hochganghaus.it"
    ]
  },
  {
    "id": "1236",
    "name": "Lodnerhütte (Rif. Cima Fiammante)",
    "elevation": "2262 m",
    "link": "https://www.alpenverein.at/huetten/index.php?huette_nr=1236",
    "phone": "+39/0473/967367",
    "lat": 46.7243833333333,
    "lon": 11.0209666666667,
    "gebirgsgruppe": "Ötztaler Alpen",
    "bundesland": "Italien/Südtirol",
    "hutReservationId": null,
    "websites": []
  },
  {
    "id": "1237",
    "name": "Stettiner Hütte (Rif. Petrarca)",
    "elevation": "2875 m",
    "link": "https://www.alpenverein.at/huetten/index.php?huette_nr=1237",
    "phone": "+39/0473/424244",
    "lat": 46.757052,
    "lon": 11.028623,
    "gebirgsgruppe": "Ötztaler Alpen",
    "bundesland": "Italien/Südtirol",
    "hutReservationId": null,
    "websites": [
      "http://www.13h.de"
    ]
  },
  {
    "id": "1238",
    "name": "Zwickauer Hütte (Rif. Plan)",
    "elevation": "2989 m",
    "link": "https://www.alpenverein.at/huetten/index.php?huette_nr=1238",
    "phone": "+39/0473/646700",
    "lat": 46.801702,
    "lon": 11.055097,
    "gebirgsgruppe": "Ötztaler Alpen",
    "bundesland": "Italien/Südtirol",
    "hutReservationId": null,
    "websites": [
      "http://www.zwickauerhuette.eu"
    ]
  },
  {
    "id": "1239",
    "name": "Bockerhütte",
    "elevation": "1717 m",
    "link": "https://www.alpenverein.at/huetten/index.php?huette_nr=1239",
    "phone": "+39/0473/945544",
    "lat": 46.726415,
    "lon": 11.119596,
    "gebirgsgruppe": "Ausseralpine Gebiete - Österr.",
    "bundesland": "Italien/Südtirol",
    "hutReservationId": null,
    "websites": [
      "http://www.bockerhuette.com"
    ]
  },
  {
    "id": "1245",
    "name": "Zamser Schihütte",
    "elevation": "1770 m",
    "link": "https://www.alpenverein.at/huetten/index.php?huette_nr=1245",
    "phone": "+43/5442/61300",
    "lat": 47.1518166666667,
    "lon": 10.6183333333333,
    "gebirgsgruppe": "Ötztaler Alpen",
    "bundesland": "Tirol",
    "hutReservationId": null,
    "websites": []
  },
  {
    "id": "1246",
    "name": "Rettenbachalm",
    "elevation": "2138 m",
    "link": "https://www.alpenverein.at/huetten/index.php?huette_nr=1246",
    "phone": "+43/5254/2622",
    "lat": 47.6921833333333,
    "lon": 13.7154333333333,
    "gebirgsgruppe": "Ötztaler Alpen",
    "bundesland": "Tirol",
    "hutReservationId": null,
    "websites": []
  },
  {
    "id": "1247",
    "name": "Nasereithütte",
    "elevation": "1523 m",
    "link": "https://www.alpenverein.at/huetten/index.php?huette_nr=1247",
    "phone": "+39/0473/968222",
    "lat": 46.702646,
    "lon": 11.038462,
    "gebirgsgruppe": "Ötztaler Alpen",
    "bundesland": "Italien/Südtirol",
    "hutReservationId": null,
    "websites": [
      "http://www.nasereit.com"
    ]
  },
  {
    "id": "1250",
    "name": "Schwarzensteinhütte (Rif. al Sasso Nero)",
    "elevation": "3026 m",
    "link": "https://www.alpenverein.at/huetten/index.php?huette_nr=1250",
    "phone": null,
    "lat": 47.0129166666667,
    "lon": 11.8856666666667,
    "gebirgsgruppe": "Zillertaler Alpen",
    "bundesland": "Italien/Südtirol",
    "hutReservationId": "685",
    "websites": [
      "http://www.schwarzensteinhuette.com"
    ]
  },
  {
    "id": "1252",
    "name": "Tuxer-Joch-Haus",
    "elevation": "2313 m",
    "link": "https://www.alpenverein.at/huetten/index.php?huette_nr=1252",
    "phone": "+43/5287/87216",
    "lat": 47.0988666666667,
    "lon": 11.6495333333333,
    "gebirgsgruppe": "Tuxer Alpen",
    "bundesland": "Tirol",
    "hutReservationId": null,
    "websites": []
  },
  {
    "id": "1253",
    "name": "Dominikushütte",
    "elevation": "1805 m",
    "link": "https://www.alpenverein.at/huetten/index.php?huette_nr=1253",
    "phone": "+43/5286/5216",
    "lat": 47.03985,
    "lon": 11.70225,
    "gebirgsgruppe": "Zillertaler Alpen",
    "bundesland": "Tirol",
    "hutReservationId": null,
    "websites": [
      "http://www.dominikushuette.at"
    ]
  },
  {
    "id": "1254",
    "name": "Pfitscher-Joch-Haus (Rif. Passo di Vizze)",
    "elevation": "2276 m",
    "link": "https://www.alpenverein.at/huetten/index.php?huette_nr=1254",
    "phone": "+39/0472/630119",
    "lat": 46.99225,
    "lon": 11.657576,
    "gebirgsgruppe": "Zillertaler Alpen",
    "bundesland": "Italien/Südtirol",
    "hutReservationId": null,
    "websites": [
      "http://www.pfitscherjochhaus.com"
    ]
  },
  {
    "id": "1255",
    "name": "Grüne-Wand-Hütte",
    "elevation": "1438 m",
    "link": "https://www.alpenverein.at/huetten/index.php?huette_nr=1255",
    "phone": null,
    "lat": 47.0696333333333,
    "lon": 11.9209166666667,
    "gebirgsgruppe": "Zillertaler Alpen",
    "bundesland": "Tirol",
    "hutReservationId": null,
    "websites": []
  },
  {
    "id": "1256",
    "name": "Krimmler Tauernhaus",
    "elevation": "1631 m",
    "link": "https://www.alpenverein.at/huetten/index.php?huette_nr=1256",
    "phone": "+43/(0)6564 21200",
    "lat": 47.13895,
    "lon": 12.1908,
    "gebirgsgruppe": "Zillertaler Alpen",
    "bundesland": "Salzburg",
    "hutReservationId": null,
    "websites": [
      "http://www.krimmler-tauernhaus.at"
    ]
  },
  {
    "id": "1257",
    "name": "Birnlückenhütte (Rif. Brigata Tridentina)",
    "elevation": "2441 m",
    "link": "https://www.alpenverein.at/huetten/index.php?huette_nr=1257",
    "phone": "+39/0474/654140",
    "lat": 47.0799333333333,
    "lon": 12.2064,
    "gebirgsgruppe": "Venedigergruppe",
    "bundesland": "Italien/Südtirol",
    "hutReservationId": null,
    "websites": [
      "http://www.pension-knappenhof.com"
    ]
  },
  {
    "id": "1258",
    "name": "Alpenrose-Hütte",
    "elevation": "1875 m",
    "link": "https://www.alpenverein.at/huetten/index.php?huette_nr=1258",
    "phone": null,
    "lat": 47.0253166666667,
    "lon": 11.8015,
    "gebirgsgruppe": "Zillertaler Alpen",
    "bundesland": "Tirol",
    "hutReservationId": "303",
    "websites": [
      "http://www.alpenrose-huette.at",
      "http://www.facebook.com/alpenrose-huette"
    ]
  },
  {
    "id": "1259",
    "name": "Chemnitzer Hütte (Rif. Porro)",
    "elevation": "2419 m",
    "link": "https://www.alpenverein.at/huetten/index.php?huette_nr=1259",
    "phone": "+39/0474/653244",
    "lat": 46.957176,
    "lon": 11.808768,
    "gebirgsgruppe": "Zillertaler Alpen",
    "bundesland": "Italien/Südtirol",
    "hutReservationId": null,
    "websites": [
      "http://www.chemnitzerhuette.com"
    ]
  },
  {
    "id": "1260",
    "name": "Brandbergkolmhaus",
    "elevation": "1845 m",
    "link": "https://www.alpenverein.at/huetten/index.php?huette_nr=1260",
    "phone": "+43/5285/3175",
    "lat": 47.1736333333333,
    "lon": 11.9358833333333,
    "gebirgsgruppe": "Zillertaler Alpen",
    "bundesland": "Tirol",
    "hutReservationId": null,
    "websites": []
  },
  {
    "id": "1261",
    "name": "Enzianhütte",
    "elevation": "1900 m",
    "link": "https://www.alpenverein.at/huetten/index.php?huette_nr=1261",
    "phone": "+39/0472/631224",
    "lat": 46.970827,
    "lon": 11.498392,
    "gebirgsgruppe": "Zillertaler Alpen",
    "bundesland": "Italien/Südtirol",
    "hutReservationId": null,
    "websites": []
  },
  {
    "id": "1262",
    "name": "Hühnerspielhütte",
    "elevation": "1868 m",
    "link": "https://www.alpenverein.at/huetten/index.php?huette_nr=1262",
    "phone": null,
    "lat": 46.942516,
    "lon": 11.468494,
    "gebirgsgruppe": "Zillertaler Alpen",
    "bundesland": "Italien/Südtirol",
    "hutReservationId": null,
    "websites": [
      "http://www.huehnerspielhuette.it"
    ]
  },
  {
    "id": "1264",
    "name": "Berghotel Gerlosstein",
    "elevation": "1650 m",
    "link": "https://www.alpenverein.at/huetten/index.php?huette_nr=1264",
    "phone": "+43/5282/2419",
    "lat": 47.20235,
    "lon": 11.9134333333333,
    "gebirgsgruppe": "Zillertaler Alpen",
    "bundesland": "Tirol",
    "hutReservationId": null,
    "websites": []
  },
  {
    "id": "1265",
    "name": "Grawandhütte",
    "elevation": "1636 m",
    "link": "https://www.alpenverein.at/huetten/index.php?huette_nr=1265",
    "phone": "+43/5286/5213",
    "lat": 47.0321666666667,
    "lon": 11.7763,
    "gebirgsgruppe": "Zillertaler Alpen",
    "bundesland": "Tirol",
    "hutReservationId": null,
    "websites": []
  },
  {
    "id": "1266",
    "name": "In der Au, Gasthaus",
    "elevation": "1270 m",
    "link": "https://www.alpenverein.at/huetten/index.php?huette_nr=1266",
    "phone": "+43/5289/214",
    "lat": 47.1219833333333,
    "lon": 12.0096666666667,
    "gebirgsgruppe": "Zillertaler Alpen",
    "bundesland": "Tirol",
    "hutReservationId": null,
    "websites": []
  },
  {
    "id": "1267",
    "name": "Kasern-Wirtshaus",
    "elevation": "1625 m",
    "link": "https://www.alpenverein.at/huetten/index.php?huette_nr=1267",
    "phone": "+43/5279/5415",
    "lat": 47.10675,
    "lon": 11.6094666666667,
    "gebirgsgruppe": "Zillertaler Alpen",
    "bundesland": "Tirol",
    "hutReservationId": null,
    "websites": []
  },
  {
    "id": "1272",
    "name": "Seetalhütte",
    "elevation": "2065 m",
    "link": "https://www.alpenverein.at/huetten/index.php?huette_nr=1272",
    "phone": null,
    "lat": 46.8739,
    "lon": 10.0093166666667,
    "gebirgsgruppe": "Silvretta",
    "bundesland": "Schweiz",
    "hutReservationId": null,
    "websites": []
  },
  {
    "id": "1273",
    "name": "Tuoi Chamonna CAS",
    "elevation": "2250 m",
    "link": "https://www.alpenverein.at/huetten/index.php?huette_nr=1273",
    "phone": "+41/81/8622322",
    "lat": 46.8307333333333,
    "lon": 10.1325,
    "gebirgsgruppe": "Silvretta",
    "bundesland": "Schweiz",
    "hutReservationId": null,
    "websites": [
      "http://www.tuoi.ch/"
    ]
  },
  {
    "id": "1275",
    "name": "Eisseehütte",
    "elevation": "2521 m",
    "link": "https://www.alpenverein.at/huetten/index.php?huette_nr=1275",
    "phone": "+43/680/2041698",
    "lat": 47.0556,
    "lon": 12.3788833333333,
    "gebirgsgruppe": "Venedigergruppe",
    "bundesland": "Tirol",
    "hutReservationId": null,
    "websites": [
      "http://www.eisseehuette.at/"
    ]
  },
  {
    "id": "1276",
    "name": "Sajathütte (Neue)",
    "elevation": "2600 m",
    "link": "https://www.alpenverein.at/huetten/index.php?huette_nr=1276",
    "phone": null,
    "lat": 47.0379833333333,
    "lon": 12.3534333333333,
    "gebirgsgruppe": "Venedigergruppe",
    "bundesland": "Tirol",
    "hutReservationId": null,
    "websites": [
      "http://www.sajathuette.at"
    ]
  },
  {
    "id": "1277",
    "name": "Lenkjöchlhütte (Rif. Giogo Lungo)",
    "elevation": "2603 m",
    "link": "https://www.alpenverein.at/huetten/index.php?huette_nr=1277",
    "phone": "+39/0474/654144",
    "lat": 47.03905,
    "lon": 12.1909166666667,
    "gebirgsgruppe": "Venedigergruppe",
    "bundesland": "Italien/Südtirol",
    "hutReservationId": null,
    "websites": [
      "http://www.lenkl.com"
    ]
  },
  {
    "id": "1278",
    "name": "Bergerseehütte",
    "elevation": "2182 m",
    "link": "https://www.alpenverein.at/huetten/index.php?huette_nr=1278",
    "phone": null,
    "lat": 46.9891666666667,
    "lon": 12.3621166666667,
    "gebirgsgruppe": "Venedigergruppe",
    "bundesland": "Tirol",
    "hutReservationId": null,
    "websites": [
      "http://www.bergerseehuette.at"
    ]
  },
  {
    "id": "1281",
    "name": "Lasnitzenhütte",
    "elevation": "1900 m",
    "link": "https://www.alpenverein.at/huetten/index.php?huette_nr=1281",
    "phone": "+43/4877/5267",
    "lat": 46.9942333333333,
    "lon": 12.3393833333333,
    "gebirgsgruppe": "Lasörlinggruppe",
    "bundesland": "Tirol",
    "hutReservationId": null,
    "websites": [
      "http://www.lasnitzenhuette.at"
    ]
  },
  {
    "id": "1283",
    "name": "Nilljochhütte",
    "elevation": "1990 m",
    "link": "https://www.alpenverein.at/huetten/index.php?huette_nr=1283",
    "phone": null,
    "lat": 47.0203666666667,
    "lon": 12.4212833333333,
    "gebirgsgruppe": "Venedigergruppe",
    "bundesland": "Tirol",
    "hutReservationId": null,
    "websites": [
      "http://www.nilljochhuette.com"
    ]
  },
  {
    "id": "1285",
    "name": "Venedigerhaus",
    "elevation": "1700 m",
    "link": "https://www.alpenverein.at/huetten/index.php?huette_nr=1285",
    "phone": "+43/4875/8820",
    "lat": 47.1238666666667,
    "lon": 12.45135,
    "gebirgsgruppe": "Venedigergruppe",
    "bundesland": "Tirol",
    "hutReservationId": null,
    "websites": [
      "http://www.venedigerhaus-innergschloess.at/"
    ]
  },
  {
    "id": "1286",
    "name": "Wetterkreuzhütte",
    "elevation": "2106 m",
    "link": "https://www.alpenverein.at/huetten/index.php?huette_nr=1286",
    "phone": "+43/4874/5227",
    "lat": 46.97815,
    "lon": 12.4592666666667,
    "gebirgsgruppe": "Venedigergruppe",
    "bundesland": "Tirol",
    "hutReservationId": null,
    "websites": []
  },
  {
    "id": "1287",
    "name": "Zupalseehütte",
    "elevation": "2350 m",
    "link": "https://www.alpenverein.at/huetten/index.php?huette_nr=1287",
    "phone": "+43/4874/5227",
    "lat": 46.9576333333333,
    "lon": 12.4366833333333,
    "gebirgsgruppe": "Venedigergruppe",
    "bundesland": "Tirol",
    "hutReservationId": null,
    "websites": []
  },
  {
    "id": "1289",
    "name": "Kasseler Hütte (Rif. Roma)",
    "elevation": "2273 m",
    "link": "https://www.alpenverein.at/huetten/index.php?huette_nr=1289",
    "phone": "+39/0474/672550",
    "lat": 46.929109,
    "lon": 12.102556,
    "gebirgsgruppe": "Rieserfernergruppe",
    "bundesland": "Italien/Südtirol",
    "hutReservationId": null,
    "websites": [
      "http://www.kasseler-huette.com"
    ]
  },
  {
    "id": "1290",
    "name": "Oberseehütte (Staller-See-Ht.)",
    "elevation": "2020 m",
    "link": "https://www.alpenverein.at/huetten/index.php?huette_nr=1290",
    "phone": null,
    "lat": 46.89115,
    "lon": 12.2022666666667,
    "gebirgsgruppe": "Rieserfernergruppe",
    "bundesland": "Tirol",
    "hutReservationId": null,
    "websites": []
  },
  {
    "id": "1291",
    "name": "Patscher Hütte",
    "elevation": "1685 m",
    "link": "https://www.alpenverein.at/huetten/index.php?huette_nr=1291",
    "phone": null,
    "lat": 46.92825,
    "lon": 12.22605,
    "gebirgsgruppe": "Rieserfernergruppe",
    "bundesland": "Tirol",
    "hutReservationId": null,
    "websites": []
  },
  {
    "id": "1292",
    "name": "Kals-Matreier-Törl-Haus",
    "elevation": "2207 m",
    "link": "https://www.alpenverein.at/huetten/index.php?huette_nr=1292",
    "phone": null,
    "lat": 47.0013,
    "lon": 12.5997,
    "gebirgsgruppe": "Granatspitzgruppe",
    "bundesland": "Tirol",
    "hutReservationId": null,
    "websites": []
  },
  {
    "id": "1293",
    "name": "Erzherzog-Johann-Hütte",
    "elevation": "3451 m",
    "link": "https://www.alpenverein.at/huetten/index.php?huette_nr=1293",
    "phone": "+43/4876/8500",
    "lat": 47.0700333333333,
    "lon": 12.7015333333333,
    "gebirgsgruppe": "Glocknergruppe",
    "bundesland": "Tirol",
    "hutReservationId": null,
    "websites": [
      "http://www.erzherzog-johann-huette.at"
    ]
  },
  {
    "id": "1295",
    "name": "Fuschertörlhaus",
    "elevation": "2445 m",
    "link": "https://www.alpenverein.at/huetten/index.php?huette_nr=1295",
    "phone": "+43/6545/7420",
    "lat": 47.1181166666667,
    "lon": 12.82925,
    "gebirgsgruppe": "Glocknergruppe",
    "bundesland": "Salzburg",
    "hutReservationId": null,
    "websites": []
  },
  {
    "id": "1296",
    "name": "Lucknerhaus (Neues)",
    "elevation": "1920 m",
    "link": "https://www.alpenverein.at/huetten/index.php?huette_nr=1296",
    "phone": "+43/4876/8555",
    "lat": 47.0208,
    "lon": 12.6878833333333,
    "gebirgsgruppe": "Glocknergruppe",
    "bundesland": "Tirol",
    "hutReservationId": null,
    "websites": [
      "http://www.lucknerhaus.at"
    ]
  },
  {
    "id": "1297",
    "name": "Lucknerhütte",
    "elevation": "2241 m",
    "link": "https://www.alpenverein.at/huetten/index.php?huette_nr=1297",
    "phone": "+43/4876/8455",
    "lat": 47.0396166666667,
    "lon": 12.6905,
    "gebirgsgruppe": "Glocknergruppe",
    "bundesland": "Tirol",
    "hutReservationId": "578",
    "websites": []
  },
  {
    "id": "1298",
    "name": "Schachenhaus",
    "elevation": "1866 m",
    "link": "https://www.alpenverein.at/huetten/index.php?huette_nr=1298",
    "phone": "+49/8821/2996",
    "lat": 47.4193333333333,
    "lon": 11.1130333333333,
    "gebirgsgruppe": "Wettersteingeb./Miemingerkette",
    "bundesland": "Deutschland",
    "hutReservationId": null,
    "websites": [
      "http://www.schachenhaus.de"
    ]
  },
  {
    "id": "1300",
    "name": "Magdeburger Hütte (Cremona alla Stua)",
    "elevation": "2423 m",
    "link": "https://www.alpenverein.at/huetten/index.php?huette_nr=1300",
    "phone": null,
    "lat": 46.973511,
    "lon": 11.284222,
    "gebirgsgruppe": "Stubaier Alpen",
    "bundesland": "Italien/Südtirol",
    "hutReservationId": "733",
    "websites": [
      "http://www.magdeburgerhuette.it/"
    ]
  },
  {
    "id": "1301",
    "name": "Dammkarhütte",
    "elevation": "1650 m",
    "link": "https://www.alpenverein.at/huetten/index.php?huette_nr=1301",
    "phone": "+49/173/3514659 (7 - 9 und 19 - 21Uhr)",
    "lat": 47.4374,
    "lon": 11.3089,
    "gebirgsgruppe": "Karwendel",
    "bundesland": "Deutschland",
    "hutReservationId": null,
    "websites": [
      "http://www.dammkarhuette.de/"
    ]
  },
  {
    "id": "1302",
    "name": "Pleisenhütte",
    "elevation": "1757 m",
    "link": "https://www.alpenverein.at/huetten/index.php?huette_nr=1302",
    "phone": null,
    "lat": 47.3944666666667,
    "lon": 11.3284166666667,
    "gebirgsgruppe": "Karwendel",
    "bundesland": "Tirol",
    "hutReservationId": null,
    "websites": []
  },
  {
    "id": "1304",
    "name": "Erlahütte",
    "elevation": "1220 m",
    "link": "https://www.alpenverein.at/huetten/index.php?huette_nr=1304",
    "phone": null,
    "lat": 47.321052,
    "lon": 12.071979,
    "gebirgsgruppe": "Kitzbüheler Alpen",
    "bundesland": "Tirol",
    "hutReservationId": null,
    "websites": []
  },
  {
    "id": "1305",
    "name": "Hochwildalmhütte",
    "elevation": "1557 m",
    "link": "https://www.alpenverein.at/huetten/index.php?huette_nr=1305",
    "phone": null,
    "lat": 47.4052166666667,
    "lon": 12.4915166666667,
    "gebirgsgruppe": "Kitzbüheler Alpen",
    "bundesland": "Tirol",
    "hutReservationId": null,
    "websites": [
      "http://www.hochwildalm-aurach.org"
    ]
  },
  {
    "id": "1307",
    "name": "Kobingerhütte",
    "elevation": "1532 m",
    "link": "https://www.alpenverein.at/huetten/index.php?huette_nr=1307",
    "phone": null,
    "lat": 47.4149,
    "lon": 12.2866166666667,
    "gebirgsgruppe": "Kitzbüheler Alpen",
    "bundesland": "Tirol",
    "hutReservationId": null,
    "websites": []
  },
  {
    "id": "1308",
    "name": "Wildkogelhaus",
    "elevation": "2007 m",
    "link": "https://www.alpenverein.at/huetten/index.php?huette_nr=1308",
    "phone": "+43/6565/6672",
    "lat": 47.2797333333333,
    "lon": 12.2956333333333,
    "gebirgsgruppe": "Kitzbüheler Alpen",
    "bundesland": "Salzburg",
    "hutReservationId": null,
    "websites": []
  },
  {
    "id": "1309",
    "name": "Kaindlhütte",
    "elevation": "1318 m",
    "link": "https://www.alpenverein.at/huetten/index.php?huette_nr=1309",
    "phone": "+43/664/1686568",
    "lat": 47.5660833333333,
    "lon": 12.2315833333333,
    "gebirgsgruppe": "Kaisergebirge",
    "bundesland": "Tirol",
    "hutReservationId": null,
    "websites": [
      "http://www.kaindlhuette.com"
    ]
  },
  {
    "id": "1311",
    "name": "Wangenitzsee-Hütte",
    "elevation": "2508 m",
    "link": "https://www.alpenverein.at/huetten/index.php?huette_nr=1311",
    "phone": "+43 4826 229 (nur im Sommer!)",
    "lat": 46.930467,
    "lon": 12.799901,
    "gebirgsgruppe": "Schobergruppe",
    "bundesland": "Kärnten",
    "hutReservationId": "683",
    "websites": [
      "http://www.wangenitzseehuette.at",
      "http://www.hut-reservation.org/reservation/book-hut/683/wizard"
    ]
  },
  {
    "id": "1312",
    "name": "Berggasthaus Breitlahner",
    "elevation": "1257 m",
    "link": "https://www.alpenverein.at/huetten/index.php?huette_nr=1312",
    "phone": "+43/5286/5212",
    "lat": 47.06075,
    "lon": 11.7497666666667,
    "gebirgsgruppe": "Zillertaler Alpen",
    "bundesland": "Tirol",
    "hutReservationId": null,
    "websites": []
  },
  {
    "id": "1320",
    "name": "Gollinghütte",
    "elevation": "1641 m",
    "link": "https://www.alpenverein.at/huetten/index.php?huette_nr=1320",
    "phone": "+43/676/5336288",
    "lat": 47.2864833333333,
    "lon": 13.76935,
    "gebirgsgruppe": "Schladminger Tauern",
    "bundesland": "Steiermark",
    "hutReservationId": "410",
    "websites": [
      "http://www.gollinghuette.com",
      "http://www.preintaler.at"
    ]
  },
  {
    "id": "1321",
    "name": "Preintalerhütte",
    "elevation": "1656 m",
    "link": "https://www.alpenverein.at/huetten/index.php?huette_nr=1321",
    "phone": null,
    "lat": 47.3131833333333,
    "lon": 13.8131833333333,
    "gebirgsgruppe": "Schladminger Tauern",
    "bundesland": "Steiermark",
    "hutReservationId": "402",
    "websites": [
      "http://www.preintaler.at/preintaler/"
    ]
  },
  {
    "id": "1322",
    "name": "Krummholzhütte",
    "elevation": "1838 m",
    "link": "https://www.alpenverein.at/huetten/index.php?huette_nr=1322",
    "phone": "+43/3686/2317",
    "lat": 47.3791666666667,
    "lon": 13.7685166666667,
    "gebirgsgruppe": "Schladminger Tauern",
    "bundesland": "Steiermark",
    "hutReservationId": null,
    "websites": []
  },
  {
    "id": "1324",
    "name": "Naturfreundehaus Kaiblingalm",
    "elevation": "1784 m",
    "link": "https://www.alpenverein.at/huetten/index.php?huette_nr=1324",
    "phone": "+43/3686/2278",
    "lat": 47.36395,
    "lon": 13.7747666666667,
    "gebirgsgruppe": "Schladminger Tauern",
    "bundesland": "Steiermark",
    "hutReservationId": null,
    "websites": []
  },
  {
    "id": "1326",
    "name": "Rugghubelhütte",
    "elevation": "2290 m",
    "link": "https://www.alpenverein.at/huetten/index.php?huette_nr=1326",
    "phone": "+41/41/6372064",
    "lat": 46.8461833333333,
    "lon": 8.4627,
    "gebirgsgruppe": "Schweizer Voralpen / Zentral",
    "bundesland": "Schweiz",
    "hutReservationId": null,
    "websites": [
      "http://www.rugghubel.ch"
    ]
  },
  {
    "id": "1329",
    "name": "Lauteraarhütte",
    "elevation": "2392 m",
    "link": "https://www.alpenverein.at/huetten/index.php?huette_nr=1329",
    "phone": "+41/33/9731110",
    "lat": 46.57005,
    "lon": 8.22196666666667,
    "gebirgsgruppe": "Berner Alpen",
    "bundesland": "Schweiz",
    "hutReservationId": null,
    "websites": []
  },
  {
    "id": "1330",
    "name": "Schutzhaus-Neubau",
    "elevation": "2175 m",
    "link": "https://www.alpenverein.at/huetten/index.php?huette_nr=1330",
    "phone": "+43/6544/8181",
    "lat": 47.0562166666667,
    "lon": 12.9877333333333,
    "gebirgsgruppe": "Goldberggruppe",
    "bundesland": "Salzburg",
    "hutReservationId": null,
    "websites": [
      "http://www.schutzhaus-neubau.at"
    ]
  },
  {
    "id": "1331",
    "name": "Heinrich-Kiener-Haus",
    "elevation": "1800 m",
    "link": "https://www.alpenverein.at/huetten/index.php?huette_nr=1331",
    "phone": null,
    "lat": 47.3821833333333,
    "lon": 13.2652166666667,
    "gebirgsgruppe": "Radstädter Tauern",
    "bundesland": "Salzburg",
    "hutReservationId": null,
    "websites": [
      "http://www.hochgruendeck.at"
    ]
  },
  {
    "id": "1333",
    "name": "Gafadurahütte",
    "elevation": "1428 m",
    "link": "https://www.alpenverein.at/huetten/index.php?huette_nr=1333",
    "phone": "+423 787 14 28",
    "lat": 47.18605,
    "lon": 9.56838333333333,
    "gebirgsgruppe": "Rätikon",
    "bundesland": "Liechtenstein",
    "hutReservationId": null,
    "websites": []
  },
  {
    "id": "1334",
    "name": "Pfälzerhütte",
    "elevation": "2111 m",
    "link": "https://www.alpenverein.at/huetten/index.php?huette_nr=1334",
    "phone": "+423/2633679",
    "lat": 47.0713333333333,
    "lon": 9.6133,
    "gebirgsgruppe": "Rätikon",
    "bundesland": "Liechtenstein",
    "hutReservationId": null,
    "websites": []
  },
  {
    "id": "1335",
    "name": "Schesaplanahütte",
    "elevation": "1908 m",
    "link": "https://www.alpenverein.at/huetten/index.php?huette_nr=1335",
    "phone": "+41/81/3251163",
    "lat": 47.04405,
    "lon": 9.68373333333333,
    "gebirgsgruppe": "Rätikon",
    "bundesland": "Schweiz",
    "hutReservationId": null,
    "websites": [
      "http://www.schesaplana-huette.ch"
    ]
  },
  {
    "id": "1336",
    "name": "Carschinahütte",
    "elevation": "2236 m",
    "link": "https://www.alpenverein.at/huetten/index.php?huette_nr=1336",
    "phone": "+41 79 418 22 80",
    "lat": 47.0071,
    "lon": 9.82733333333333,
    "gebirgsgruppe": "Rätikon",
    "bundesland": "Schweiz",
    "hutReservationId": "46",
    "websites": [
      "http://www.carschina.ch"
    ]
  },
  {
    "id": "1337",
    "name": "Sattelbergalm",
    "elevation": "1637 m",
    "link": "https://www.alpenverein.at/huetten/index.php?huette_nr=1337",
    "phone": null,
    "lat": 47.02045,
    "lon": 11.4933,
    "gebirgsgruppe": "Stubaier Alpen",
    "bundesland": "Tirol",
    "hutReservationId": null,
    "websites": [
      "http://www.sattelalm.com"
    ]
  },
  {
    "id": "1339",
    "name": "Kramerhütte",
    "elevation": "1600 m",
    "link": "https://www.alpenverein.at/huetten/index.php?huette_nr=1339",
    "phone": null,
    "lat": 46.9761,
    "lon": 13.5113666666667,
    "gebirgsgruppe": "Ankogelgruppe",
    "bundesland": "Kärnten",
    "hutReservationId": null,
    "websites": []
  },
  {
    "id": "1341",
    "name": "Leonhardhütte",
    "elevation": "1600 m",
    "link": "https://www.alpenverein.at/huetten/index.php?huette_nr=1341",
    "phone": "+43/4733/242",
    "lat": 46.9744833333333,
    "lon": 13.51185,
    "gebirgsgruppe": "Ankogelgruppe",
    "bundesland": "Kärnten",
    "hutReservationId": null,
    "websites": [
      "http://www.maltahuetten.at"
    ]
  },
  {
    "id": "1344",
    "name": "Salzstiegelhaus",
    "elevation": "1553 m",
    "link": "https://www.alpenverein.at/huetten/index.php?huette_nr=1344",
    "phone": "+43/3141/2248",
    "lat": 47.0682333333333,
    "lon": 14.8713333333333,
    "gebirgsgruppe": "Lavanttaler Alpen",
    "bundesland": "Steiermark",
    "hutReservationId": null,
    "websites": []
  },
  {
    "id": "1346",
    "name": "Bliessalm",
    "elevation": "1800 m",
    "link": "https://www.alpenverein.at/huetten/index.php?huette_nr=1346",
    "phone": null,
    "lat": 46.7083333333333,
    "lon": 13.14845,
    "gebirgsgruppe": "Gailtaler Alpen",
    "bundesland": "Kärnten",
    "hutReservationId": null,
    "websites": []
  },
  {
    "id": "1347",
    "name": "Waldheimatschutzhaus",
    "elevation": null,
    "link": "https://www.alpenverein.at/huetten/index.php?huette_nr=1347",
    "phone": null,
    "lat": 47.4901166666667,
    "lon": 15.5463333333333,
    "gebirgsgruppe": "Randgebirge östlich der Mur",
    "bundesland": "Steiermark",
    "hutReservationId": null,
    "websites": []
  },
  {
    "id": "1348",
    "name": "Klosteralm",
    "elevation": null,
    "link": "https://www.alpenverein.at/huetten/index.php?huette_nr=1348",
    "phone": null,
    "lat": 47.9815666666667,
    "lon": 15.60035,
    "gebirgsgruppe": "Gutensteiner Alpen",
    "bundesland": "Niederösterreich",
    "hutReservationId": null,
    "websites": []
  },
  {
    "id": "1350",
    "name": "Voldertalhütte",
    "elevation": "1376 m",
    "link": "https://www.alpenverein.at/huetten/index.php?huette_nr=1350",
    "phone": null,
    "lat": 47.2247,
    "lon": 11.5510166666667,
    "gebirgsgruppe": "Tuxer Alpen",
    "bundesland": "Tirol",
    "hutReservationId": null,
    "websites": []
  },
  {
    "id": "1352",
    "name": "Tillfussalm",
    "elevation": "500 m",
    "link": "https://www.alpenverein.at/huetten/index.php?huette_nr=1352",
    "phone": null,
    "lat": 47.37155,
    "lon": 11.0399333333333,
    "gebirgsgruppe": "Wettersteingeb./Miemingerkette",
    "bundesland": "Tirol",
    "hutReservationId": null,
    "websites": []
  },
  {
    "id": "1353",
    "name": "Happisch Haus",
    "elevation": "1925 m",
    "link": "https://www.alpenverein.at/huetten/index.php?huette_nr=1353",
    "phone": null,
    "lat": 47.5232833333333,
    "lon": 13.21745,
    "gebirgsgruppe": "Tennengebirge",
    "bundesland": "Salzburg",
    "hutReservationId": null,
    "websites": [
      "http://www.leopoldhappischhaus.at"
    ]
  },
  {
    "id": "1354",
    "name": "Höllensteinhütte",
    "elevation": "1710 m",
    "link": "https://www.alpenverein.at/huetten/index.php?huette_nr=1354",
    "phone": "+43/5287/87696",
    "lat": 47.1316833333333,
    "lon": 11.7218666666667,
    "gebirgsgruppe": "Zillertaler Alpen",
    "bundesland": "Tirol",
    "hutReservationId": null,
    "websites": [
      "http://www.hoellensteinhuette.at"
    ]
  },
  {
    "id": "1358",
    "name": "Wilhelm Eichert-Hütte",
    "elevation": "1052 m",
    "link": "https://www.alpenverein.at/huetten/index.php?huette_nr=1358",
    "phone": null,
    "lat": 47.81185,
    "lon": 16.01325,
    "gebirgsgruppe": "Gutensteiner Alpen",
    "bundesland": "Niederösterreich",
    "hutReservationId": null,
    "websites": []
  },
  {
    "id": "1360",
    "name": "Preschern Hütte",
    "elevation": "2174 m",
    "link": "https://www.alpenverein.at/huetten/index.php?huette_nr=1360",
    "phone": null,
    "lat": 46.4313333333333,
    "lon": 14.17485,
    "gebirgsgruppe": "Karawanken u. Bachergebirge",
    "bundesland": "Kärnten",
    "hutReservationId": null,
    "websites": []
  },
  {
    "id": "1361",
    "name": "Zelenica-Haus",
    "elevation": "1536 m",
    "link": "https://www.alpenverein.at/huetten/index.php?huette_nr=1361",
    "phone": null,
    "lat": 46.4290333333333,
    "lon": 14.2336,
    "gebirgsgruppe": "Karawanken u. Bachergebirge",
    "bundesland": "Kärnten",
    "hutReservationId": null,
    "websites": []
  },
  {
    "id": "1366",
    "name": "Lurgbauerhütte",
    "elevation": "1764 m",
    "link": "https://www.alpenverein.at/huetten/index.php?huette_nr=1366",
    "phone": null,
    "lat": 47.71095,
    "lon": 15.6366333333333,
    "gebirgsgruppe": "Mürzsteger Alpen",
    "bundesland": "Steiermark",
    "hutReservationId": null,
    "websites": []
  },
  {
    "id": "1370",
    "name": "Gowil-Alm-Hütte",
    "elevation": "1375 m",
    "link": "https://www.alpenverein.at/huetten/index.php?huette_nr=1370",
    "phone": null,
    "lat": 47.6699333333333,
    "lon": 14.3921,
    "gebirgsgruppe": "Totes Gebirge",
    "bundesland": "Oberösterreich",
    "hutReservationId": null,
    "websites": [
      "http://www.gowilalm.at"
    ]
  },
  {
    "id": "1371",
    "name": "Grimminghütte",
    "elevation": "966 m",
    "link": "https://www.alpenverein.at/huetten/index.php?huette_nr=1371",
    "phone": null,
    "lat": 47.5144666666667,
    "lon": 14.0442333333333,
    "gebirgsgruppe": "Dachsteingebirge",
    "bundesland": "Steiermark",
    "hutReservationId": null,
    "websites": []
  },
  {
    "id": "1372",
    "name": "Gschwendt Hütte",
    "elevation": "1072 m",
    "link": "https://www.alpenverein.at/huetten/index.php?huette_nr=1372",
    "phone": null,
    "lat": 47.8967,
    "lon": 15.5722166666667,
    "gebirgsgruppe": "Türnitzer Alpen",
    "bundesland": "Niederösterreich",
    "hutReservationId": null,
    "websites": []
  },
  {
    "id": "1374",
    "name": "Hallerhaus",
    "elevation": "1350 m",
    "link": "https://www.alpenverein.at/huetten/index.php?huette_nr=1374",
    "phone": "+43/2649/230",
    "lat": 47.5165666666667,
    "lon": 15.99225,
    "gebirgsgruppe": "Randgebirge östlich der Mur",
    "bundesland": "Niederösterreich",
    "hutReservationId": null,
    "websites": [
      "http://www.hallerhaus.at"
    ]
  },
  {
    "id": "1375",
    "name": "Almgasthaus Glocknerblick",
    "elevation": "2050 m",
    "link": "https://www.alpenverein.at/huetten/index.php?huette_nr=1375",
    "phone": "+43/4825/540",
    "lat": 46.9542166666667,
    "lon": 12.9321,
    "gebirgsgruppe": "Goldberggruppe",
    "bundesland": "Kärnten",
    "hutReservationId": null,
    "websites": [
      "http://www.tiscover.at/almgasthaus-glocknerblick"
    ]
  },
  {
    "id": "1377",
    "name": "Wandberghütte",
    "elevation": "1350 m",
    "link": "https://www.alpenverein.at/huetten/index.php?huette_nr=1377",
    "phone": null,
    "lat": 47.68725,
    "lon": 12.3134666666667,
    "gebirgsgruppe": "Chiemgauer Alpen",
    "bundesland": "Deutschland",
    "hutReservationId": null,
    "websites": []
  },
  {
    "id": "1381",
    "name": "Albert-Appel-Haus",
    "elevation": null,
    "link": "https://www.alpenverein.at/huetten/index.php?huette_nr=1381",
    "phone": "+43/676/3336668",
    "lat": 47.6933833333333,
    "lon": 13.8703666666667,
    "gebirgsgruppe": "Totes Gebirge",
    "bundesland": "Steiermark",
    "hutReservationId": null,
    "websites": [
      "http://www.touristenverein.at/Haeuser/Appelhaus/Appelhaus.htm"
    ]
  },
  {
    "id": "1390",
    "name": "Hochstadelhaus",
    "elevation": "1780 m",
    "link": "https://www.alpenverein.at/huetten/index.php?huette_nr=1390",
    "phone": "+43/4710/2778",
    "lat": 46.7585666666667,
    "lon": 12.8900666666667,
    "gebirgsgruppe": "Gailtaler Alpen",
    "bundesland": "Tirol",
    "hutReservationId": null,
    "websites": []
  },
  {
    "id": "1404",
    "name": "Gasthof &quot;Goldener Stern&quot;",
    "elevation": null,
    "link": "https://www.alpenverein.at/huetten/index.php?huette_nr=1404",
    "phone": "+43/2752/52214",
    "lat": 48.2274833333333,
    "lon": 15.33065,
    "gebirgsgruppe": "Ausseralpine Gebiete - Österr.",
    "bundesland": "Niederösterreich",
    "hutReservationId": null,
    "websites": [
      "http://www.sternmelk.at"
    ]
  },
  {
    "id": "1414",
    "name": "Gasthof Roderich",
    "elevation": null,
    "link": "https://www.alpenverein.at/huetten/index.php?huette_nr=1414",
    "phone": "+43/2244/2415",
    "lat": 48.30685,
    "lon": 16.3626333333333,
    "gebirgsgruppe": "Ausseralpine Gebiete - Österr.",
    "bundesland": "Niederösterreich",
    "hutReservationId": null,
    "websites": [
      "http://www.roderich.at"
    ]
  },
  {
    "id": "1415",
    "name": "Gasthof-Pension Ettel",
    "elevation": "728 m",
    "link": "https://www.alpenverein.at/huetten/index.php?huette_nr=1415",
    "phone": "+43/7442/7221",
    "lat": 47.99525,
    "lon": 14.8736333333333,
    "gebirgsgruppe": "Ybbstaler Alpen",
    "bundesland": "Niederösterreich",
    "hutReservationId": null,
    "websites": [
      "http://www.gasthof-ettel.at"
    ]
  },
  {
    "id": "1421",
    "name": "Landgasthof &quot;Kirchenwirt&quot;",
    "elevation": "450 m",
    "link": "https://www.alpenverein.at/huetten/index.php?huette_nr=1421",
    "phone": "+43/7254/8256",
    "lat": 47.8866,
    "lon": 14.5497666666667,
    "gebirgsgruppe": "Oberösterreichische Voralpen",
    "bundesland": "Oberösterreich",
    "hutReservationId": null,
    "websites": [
      "http://www.kirchenwirt-ahrer.at"
    ]
  },
  {
    "id": "1431",
    "name": "Hotel &quot;Kaiser von Österreich&quot;",
    "elevation": null,
    "link": "https://www.alpenverein.at/huetten/index.php?huette_nr=1431",
    "phone": "+43/3476/40750-0",
    "lat": 46.68575,
    "lon": 15.9851666666667,
    "gebirgsgruppe": "Randgebirge östlich der Mur",
    "bundesland": "Steiermark",
    "hutReservationId": null,
    "websites": [
      "http://www.kaiservon.at"
    ]
  },
  {
    "id": "1439",
    "name": "Breitlahnalm",
    "elevation": "1070 m",
    "link": "https://www.alpenverein.at/huetten/index.php?huette_nr=1439",
    "phone": "+43 660 6500773",
    "lat": 47.3166,
    "lon": 13.8881666666667,
    "gebirgsgruppe": "Schladminger Tauern",
    "bundesland": "Steiermark",
    "hutReservationId": null,
    "websites": []
  },
  {
    "id": "1451",
    "name": "Gasthof Strosseggwirt",
    "elevation": null,
    "link": "https://www.alpenverein.at/huetten/index.php?huette_nr=1451",
    "phone": "+43/3171/260",
    "lat": 47.3902833333333,
    "lon": 15.5310333333333,
    "gebirgsgruppe": "Randgebirge östlich der Mur",
    "bundesland": "Steiermark",
    "hutReservationId": null,
    "websites": [
      "http://www.strosseggwirt.at"
    ]
  },
  {
    "id": "1453",
    "name": "Gasthof &quot;Zur Post&quot;",
    "elevation": null,
    "link": "https://www.alpenverein.at/huetten/index.php?huette_nr=1453",
    "phone": "+43/3173/2371",
    "lat": 47.4891,
    "lon": 15.6928166666667,
    "gebirgsgruppe": "Randgebirge östlich der Mur",
    "bundesland": "Steiermark",
    "hutReservationId": null,
    "websites": [
      "http://www.zur-post.at"
    ]
  },
  {
    "id": "1462",
    "name": "Elferhütte",
    "elevation": "2080 m",
    "link": "https://www.alpenverein.at/huetten/index.php?huette_nr=1462",
    "phone": "+43/5226/2818",
    "lat": 47.0950666666667,
    "lon": 11.3195,
    "gebirgsgruppe": "Stubaier Alpen",
    "bundesland": "Tirol",
    "hutReservationId": null,
    "websites": [
      "http://www.elferhuette.at"
    ]
  },
  {
    "id": "1463",
    "name": "Gimpelhaus",
    "elevation": "1659 m",
    "link": "https://www.alpenverein.at/huetten/index.php?huette_nr=1463",
    "phone": "+43/5675/8251",
    "lat": 47.494,
    "lon": 10.6141166666667,
    "gebirgsgruppe": "Allgäuer Alpen",
    "bundesland": "Tirol",
    "hutReservationId": null,
    "websites": [
      "http://www.tannheimertal.at/gimpelhaus"
    ]
  },
  {
    "id": "1467",
    "name": "Schobersteinhaus",
    "elevation": "1260 m",
    "link": "https://www.alpenverein.at/huetten/index.php?huette_nr=1467",
    "phone": "+43/664/4171320",
    "lat": 47.9050833333333,
    "lon": 14.3242333333333,
    "gebirgsgruppe": "Oberösterreichische Voralpen",
    "bundesland": "Oberösterreich",
    "hutReservationId": null,
    "websites": []
  },
  {
    "id": "1468",
    "name": "Peilsteinhütte",
    "elevation": "620 m",
    "link": "https://www.alpenverein.at/huetten/index.php?huette_nr=1468",
    "phone": "+43/664/9123532",
    "lat": 48.0099,
    "lon": 16.0526333333333,
    "gebirgsgruppe": "Wienerwald",
    "bundesland": "Niederösterreich",
    "hutReservationId": null,
    "websites": []
  },
  {
    "id": "1471",
    "name": "Siebenhütte",
    "elevation": "1692 m",
    "link": "https://www.alpenverein.at/huetten/index.php?huette_nr=1471",
    "phone": "+43/4235/5116",
    "lat": 46.5181833333333,
    "lon": 14.7731833333333,
    "gebirgsgruppe": "",
    "bundesland": "Kärnten",
    "hutReservationId": null,
    "websites": [
      "http://www.publish.at/trekking/default.htm"
    ]
  },
  {
    "id": "1479",
    "name": "Martin-Busch-Hütte",
    "elevation": "2501 m",
    "link": "https://www.alpenverein.at/huetten/index.php?huette_nr=1479",
    "phone": "0043/5254/8130",
    "lat": 46.801111111111,
    "lon": 10.886944444444,
    "gebirgsgruppe": "Ötztaler Alpen",
    "bundesland": "Tirol",
    "hutReservationId": "476",
    "websites": [
      "http://www.vent.eu"
    ]
  },
  {
    "id": "1502",
    "name": "Senneshütte",
    "elevation": "2126 m",
    "link": "https://www.alpenverein.at/huetten/index.php?huette_nr=1502",
    "phone": "+39/0474/501837",
    "lat": 46.6536333333333,
    "lon": 12.0594333333333,
    "gebirgsgruppe": "Dolomiten",
    "bundesland": "Italien/Südtirol",
    "hutReservationId": null,
    "websites": [
      "http://www.sennes.com"
    ]
  },
  {
    "id": "1503",
    "name": "Casatihütte",
    "elevation": "0 m",
    "link": "https://www.alpenverein.at/huetten/index.php?huette_nr=1503",
    "phone": "+39/0342/935507",
    "lat": 46.4631166666667,
    "lon": 10.60245,
    "gebirgsgruppe": "Ortler-Gruppe",
    "bundesland": "Italien",
    "hutReservationId": null,
    "websites": []
  },
  {
    "id": "1514",
    "name": "Schlüterhütte (Rif. Genova)",
    "elevation": "2301 m",
    "link": "https://www.alpenverein.at/huetten/index.php?huette_nr=1514",
    "phone": "+39/0472/840132",
    "lat": 46.635317,
    "lon": 11.80477,
    "gebirgsgruppe": "Dolomiten",
    "bundesland": "Italien/Südtirol",
    "hutReservationId": null,
    "websites": [
      "http://www.schlueterhuette.com"
    ]
  },
  {
    "id": "1516",
    "name": "Vittorio Emanuele II Rifugio",
    "elevation": "2735 m",
    "link": "https://www.alpenverein.at/huetten/index.php?huette_nr=1516",
    "phone": "+39/0165/95920",
    "lat": 45.51275,
    "lon": 7.22958333333333,
    "gebirgsgruppe": "Ausseralpine Gebiete - Österr.",
    "bundesland": "Italien",
    "hutReservationId": null,
    "websites": [
      "http://www.rifugiovittorioemanuele.com"
    ]
  },
  {
    "id": "1517",
    "name": "Zufallhütte (Rif. Nino Corsi)",
    "elevation": "2265 m",
    "link": "https://www.alpenverein.at/huetten/index.php?huette_nr=1517",
    "phone": "+39/0473/744785",
    "lat": 46.481469,
    "lon": 10.679122,
    "gebirgsgruppe": "Ortler-Gruppe",
    "bundesland": "Italien/Südtirol",
    "hutReservationId": null,
    "websites": [
      "http://www.zufallhuette.com"
    ]
  },
  {
    "id": "1522",
    "name": "Benevolo",
    "elevation": "2285 m",
    "link": "https://www.alpenverein.at/huetten/index.php?huette_nr=1522",
    "phone": "+39/0165/936143",
    "lat": 45.5157666666667,
    "lon": 7.0844,
    "gebirgsgruppe": "Dolomiten",
    "bundesland": "Italien",
    "hutReservationId": null,
    "websites": [
      "http://www.granparadiso.net"
    ]
  },
  {
    "id": "1523",
    "name": "Fonda-Savio-Hütte",
    "elevation": null,
    "link": "https://www.alpenverein.at/huetten/index.php?huette_nr=1523",
    "phone": "+39/0435/39036",
    "lat": 46.5854,
    "lon": 12.28725,
    "gebirgsgruppe": "Ausseralpine Gebiete - Österr.",
    "bundesland": "Italien",
    "hutReservationId": null,
    "websites": []
  },
  {
    "id": "1532",
    "name": "Guide Valle d'Ayas Rifugio",
    "elevation": "3420 m",
    "link": "https://www.alpenverein.at/huetten/index.php?huette_nr=1532",
    "phone": "+39/0125/308083",
    "lat": 45.9207166666667,
    "lon": 7.76728333333333,
    "gebirgsgruppe": "Ausseralpine Gebiete - Österr.",
    "bundesland": "Italien",
    "hutReservationId": null,
    "websites": []
  },
  {
    "id": "1533",
    "name": "Cittá di Mantova",
    "elevation": "3498 m",
    "link": "https://www.alpenverein.at/huetten/index.php?huette_nr=1533",
    "phone": "+39/0163/78150",
    "lat": 45.8954666666667,
    "lon": 7.84791666666667,
    "gebirgsgruppe": "Ausseralpine Gebiete - Österr.",
    "bundesland": "Italien",
    "hutReservationId": null,
    "websites": [
      "http://www.rifugiomantova.it"
    ]
  },
  {
    "id": "1535",
    "name": "Berghütte Valentini",
    "elevation": "2218 m",
    "link": "https://www.alpenverein.at/huetten/index.php?huette_nr=1535",
    "phone": "+39/0462/601183",
    "lat": 46.5059833333333,
    "lon": 11.7573666666667,
    "gebirgsgruppe": "Dolomiten",
    "bundesland": "Italien",
    "hutReservationId": null,
    "websites": [
      "http://www.rifugiocarlovalentini.com/"
    ]
  },
  {
    "id": "1536",
    "name": "Forni - Gletscher - Hütte",
    "elevation": "2200 m",
    "link": "https://www.alpenverein.at/huetten/index.php?huette_nr=1536",
    "phone": "+39/0342/935365",
    "lat": 46.4201333333333,
    "lon": 10.5549333333333,
    "gebirgsgruppe": "Ortler-Gruppe",
    "bundesland": "Italien",
    "hutReservationId": null,
    "websites": [
      "http://www.forni2000.com"
    ]
  },
  {
    "id": "1541",
    "name": "Alimontahütte",
    "elevation": null,
    "link": "https://www.alpenverein.at/huetten/index.php?huette_nr=1541",
    "phone": "+39/0465/440366",
    "lat": 46.1739166666667,
    "lon": 10.8920333333333,
    "gebirgsgruppe": "Ausseralpine Gebiete - Österr.",
    "bundesland": "Italien",
    "hutReservationId": null,
    "websites": []
  },
  {
    "id": "1543",
    "name": "Carè Alto",
    "elevation": null,
    "link": "https://www.alpenverein.at/huetten/index.php?huette_nr=1543",
    "phone": "+39/0461/948080",
    "lat": 46.1076166666667,
    "lon": 10.6261,
    "gebirgsgruppe": "Ausseralpine Gebiete - Österr.",
    "bundesland": "Italien",
    "hutReservationId": null,
    "websites": []
  },
  {
    "id": "1544",
    "name": "Contrinhaus",
    "elevation": "2016 m",
    "link": "https://www.alpenverein.at/huetten/index.php?huette_nr=1544",
    "phone": "+39/0462/601101",
    "lat": 46.4298166666667,
    "lon": 11.8156333333333,
    "gebirgsgruppe": "Ausseralpine Gebiete - Österr.",
    "bundesland": "Italien",
    "hutReservationId": null,
    "websites": []
  },
  {
    "id": "1552",
    "name": "Tosa T. Pedrotti",
    "elevation": null,
    "link": "https://www.alpenverein.at/huetten/index.php?huette_nr=1552",
    "phone": "+39/0461/948115",
    "lat": 46.1541833333333,
    "lon": 10.8987,
    "gebirgsgruppe": "Ausseralpine Gebiete - Österr.",
    "bundesland": "Italien",
    "hutReservationId": null,
    "websites": []
  },
  {
    "id": "1556",
    "name": "Marinelli Bambardieri",
    "elevation": null,
    "link": "https://www.alpenverein.at/huetten/index.php?huette_nr=1556",
    "phone": "+39/0342/511577",
    "lat": 46.3446333333333,
    "lon": 9.90546666666667,
    "gebirgsgruppe": "Ausseralpine Gebiete - Österr.",
    "bundesland": "Italien",
    "hutReservationId": null,
    "websites": []
  },
  {
    "id": "1565",
    "name": "Hochalm",
    "elevation": "2174 m",
    "link": "https://www.alpenverein.at/huetten/index.php?huette_nr=1565",
    "phone": "+39/0473/231851",
    "lat": 46.845651,
    "lon": 11.19018,
    "gebirgsgruppe": "Stubaier Alpen",
    "bundesland": "Italien/Südtirol",
    "hutReservationId": null,
    "websites": [
      "http://www.13h.de"
    ]
  },
  {
    "id": "1566",
    "name": "Garibaldihütte",
    "elevation": null,
    "link": "https://www.alpenverein.at/huetten/index.php?huette_nr=1566",
    "phone": "+39/0364/906209",
    "lat": 46.5306666666667,
    "lon": 10.4524666666667,
    "gebirgsgruppe": "Ausseralpine Gebiete - Österr.",
    "bundesland": "Italien",
    "hutReservationId": null,
    "websites": []
  },
  {
    "id": "1567",
    "name": "Prarayerhütte",
    "elevation": "2005 m",
    "link": "https://www.alpenverein.at/huetten/index.php?huette_nr=1567",
    "phone": "+39/0165/730040",
    "lat": 45.9211,
    "lon": 7.53296666666667,
    "gebirgsgruppe": "Dolomiten",
    "bundesland": "Italien",
    "hutReservationId": null,
    "websites": [
      "http://www.rifugio-prarayer.it"
    ]
  },
  {
    "id": "1571",
    "name": "Teodulo Hütte",
    "elevation": null,
    "link": "https://www.alpenverein.at/huetten/index.php?huette_nr=1571",
    "phone": "+39/0166/949400",
    "lat": 45.9441833333333,
    "lon": 7.70863333333333,
    "gebirgsgruppe": "Ausseralpine Gebiete - Österr.",
    "bundesland": "Italien",
    "hutReservationId": null,
    "websites": []
  },
  {
    "id": "1572",
    "name": "Julius Payer Hütte (Rif. Julius Payer)",
    "elevation": "3029 m",
    "link": "https://www.alpenverein.at/huetten/index.php?huette_nr=1572",
    "phone": "+39/473/613010",
    "lat": 46.527662,
    "lon": 10.543254,
    "gebirgsgruppe": "Ortler-Gruppe",
    "bundesland": "Italien/Südtirol",
    "hutReservationId": null,
    "websites": [
      "http://www.payerhuette.com"
    ]
  },
  {
    "id": "1573",
    "name": "Tabarettahütte (Rif. Tabaretta)",
    "elevation": "2556 m",
    "link": "https://www.alpenverein.at/huetten/index.php?huette_nr=1573",
    "phone": "+39/0473/613187",
    "lat": 46.530036,
    "lon": 10.550741,
    "gebirgsgruppe": "Ortler-Gruppe",
    "bundesland": "Italien/Südtirol",
    "hutReservationId": null,
    "websites": [
      "http://www.tabaretta.com"
    ]
  },
  {
    "id": "1575",
    "name": "Sasc Fura Hütte",
    "elevation": null,
    "link": "https://www.alpenverein.at/huetten/index.php?huette_nr=1575",
    "phone": "+41/81/8221252",
    "lat": 46.3150833333333,
    "lon": 9.58213333333333,
    "gebirgsgruppe": "",
    "bundesland": "Schweiz",
    "hutReservationId": null,
    "websites": []
  },
  {
    "id": "1577",
    "name": "Marco-e-Rosa Hütte",
    "elevation": null,
    "link": "https://www.alpenverein.at/huetten/index.php?huette_nr=1577",
    "phone": "+39/0342/454053",
    "lat": 46.3737333333333,
    "lon": 9.9106,
    "gebirgsgruppe": "Ausseralpine Gebiete - Österr.",
    "bundesland": "Italien",
    "hutReservationId": null,
    "websites": []
  },
  {
    "id": "1578",
    "name": "Col Collon Hütte",
    "elevation": null,
    "link": "https://www.alpenverein.at/huetten/index.php?huette_nr=1578",
    "phone": "+39/0165/730969",
    "lat": 45.9485666666667,
    "lon": 7.50053333333333,
    "gebirgsgruppe": "Ausseralpine Gebiete - Österr.",
    "bundesland": "Italien",
    "hutReservationId": null,
    "websites": []
  },
  {
    "id": "1581",
    "name": "Boè Hütte",
    "elevation": null,
    "link": "https://www.alpenverein.at/huetten/index.php?huette_nr=1581",
    "phone": "+39/0471/847303",
    "lat": 46.51465,
    "lon": 11.8233,
    "gebirgsgruppe": "Ausseralpine Gebiete - Österr.",
    "bundesland": "Italien",
    "hutReservationId": null,
    "websites": []
  },
  {
    "id": "1583",
    "name": "Graffer Rifugio",
    "elevation": null,
    "link": "https://www.alpenverein.at/huetten/index.php?huette_nr=1583",
    "phone": "+39/0465/441358",
    "lat": 46.2197666666667,
    "lon": 10.88865,
    "gebirgsgruppe": "Ausseralpine Gebiete - Österr.",
    "bundesland": "Italien",
    "hutReservationId": null,
    "websites": []
  },
  {
    "id": "1585",
    "name": "Peller Rifugio",
    "elevation": null,
    "link": "https://www.alpenverein.at/huetten/index.php?huette_nr=1585",
    "phone": "+39/0463/536221",
    "lat": 46.3222333333333,
    "lon": 10.9519,
    "gebirgsgruppe": "Ausseralpine Gebiete - Österr.",
    "bundesland": "Italien",
    "hutReservationId": null,
    "websites": []
  },
  {
    "id": "1590",
    "name": "Francesco Denza Hütte",
    "elevation": null,
    "link": "https://www.alpenverein.at/huetten/index.php?huette_nr=1590",
    "phone": "+39/0463/758187",
    "lat": 46.24335,
    "lon": 10.65525,
    "gebirgsgruppe": "Ausseralpine Gebiete - Österr.",
    "bundesland": "Italien",
    "hutReservationId": null,
    "websites": []
  },
  {
    "id": "1591",
    "name": "Pernici Rifugio",
    "elevation": null,
    "link": "https://www.alpenverein.at/huetten/index.php?huette_nr=1591",
    "phone": "+39/0464/505090",
    "lat": 45.9266666666667,
    "lon": 10.7686833333333,
    "gebirgsgruppe": "Ausseralpine Gebiete - Österr.",
    "bundesland": "Italien",
    "hutReservationId": null,
    "websites": []
  },
  {
    "id": "1592",
    "name": "Saoseohütte",
    "elevation": null,
    "link": "https://www.alpenverein.at/huetten/index.php?huette_nr=1592",
    "phone": "+41/81/8440766",
    "lat": 46.3970333333333,
    "lon": 10.11865,
    "gebirgsgruppe": "",
    "bundesland": "Schweiz",
    "hutReservationId": null,
    "websites": []
  },
  {
    "id": "1594",
    "name": "Rifugio Tuckett e Sella",
    "elevation": "2272 m",
    "link": "https://www.alpenverein.at/huetten/index.php?huette_nr=1594",
    "phone": "+39/0465/441226",
    "lat": 46.1921666666667,
    "lon": 10.8823166666667,
    "gebirgsgruppe": "Dolomiten",
    "bundesland": "Italien",
    "hutReservationId": null,
    "websites": [
      "http://www.rifugio-tuckett.it"
    ]
  },
  {
    "id": "1595",
    "name": "Lobbia Alta",
    "elevation": null,
    "link": "https://www.alpenverein.at/huetten/index.php?huette_nr=1595",
    "phone": "+39/0465/503311",
    "lat": 46.1687,
    "lon": 10.5647333333333,
    "gebirgsgruppe": "Ausseralpine Gebiete - Österr.",
    "bundesland": "Italien",
    "hutReservationId": null,
    "websites": []
  },
  {
    "id": "1603",
    "name": "Brancahütte",
    "elevation": "2493 m",
    "link": "https://www.alpenverein.at/huetten/index.php?huette_nr=1603",
    "phone": "+39/0342/935501",
    "lat": 46.4147666666667,
    "lon": 10.5841333333333,
    "gebirgsgruppe": "Dolomiten",
    "bundesland": "Italien",
    "hutReservationId": null,
    "websites": [
      "http://www.rifugiobranca.it"
    ]
  },
  {
    "id": "1629",
    "name": "Gastaldi, Rifugio",
    "elevation": null,
    "link": "https://www.alpenverein.at/huetten/index.php?huette_nr=1629",
    "phone": "+39/0123/565008",
    "lat": 45.2978666666667,
    "lon": 7.1433,
    "gebirgsgruppe": "Ausseralpine Gebiete - Österr.",
    "bundesland": "Italien",
    "hutReservationId": null,
    "websites": []
  },
  {
    "id": "1631",
    "name": "Pizzinihütte",
    "elevation": "2706 m",
    "link": "https://www.alpenverein.at/huetten/index.php?huette_nr=1631",
    "phone": "+39/0342/935513",
    "lat": 46.4527833333333,
    "lon": 10.5785833333333,
    "gebirgsgruppe": "Ortler-Gruppe",
    "bundesland": "Italien",
    "hutReservationId": null,
    "websites": [
      "http://www.rifugiopizzini.it/"
    ]
  },
  {
    "id": "1632",
    "name": "Puezhütte",
    "elevation": "2475 m",
    "link": "https://www.alpenverein.at/huetten/index.php?huette_nr=1632",
    "phone": "+39/0471/795365",
    "lat": 46.590138,
    "lon": 11.829225,
    "gebirgsgruppe": "Dolomiten",
    "bundesland": "Italien/Südtirol",
    "hutReservationId": null,
    "websites": []
  },
  {
    "id": "1633",
    "name": "Franz Kostner Hütte (Rif. Franz Kostner al Vallon)",
    "elevation": "2550 m",
    "link": "https://www.alpenverein.at/huetten/index.php?huette_nr=1633",
    "phone": null,
    "lat": 46.5185833333333,
    "lon": 11.8484833333333,
    "gebirgsgruppe": "Dolomiten",
    "bundesland": "Italien/Südtirol",
    "hutReservationId": null,
    "websites": [
      "http://www.rifugiokostner.it"
    ]
  },
  {
    "id": "1636",
    "name": "Rifugio Ferraro",
    "elevation": "2066 m",
    "link": "https://www.alpenverein.at/huetten/index.php?huette_nr=1636",
    "phone": "+39/0125/307612",
    "lat": 45.8660666666667,
    "lon": 7.73996666666667,
    "gebirgsgruppe": "Ausseralpine Gebiete - Österr.",
    "bundesland": "Italien/Südtirol",
    "hutReservationId": null,
    "websites": []
  },
  {
    "id": "1637",
    "name": "Berglhütte (Rif. Borletti)",
    "elevation": "2188 m",
    "link": "https://www.alpenverein.at/huetten/index.php?huette_nr=1637",
    "phone": null,
    "lat": 46.526903,
    "lon": 10.513895,
    "gebirgsgruppe": "Ortler-Gruppe",
    "bundesland": "Italien/Südtirol",
    "hutReservationId": null,
    "websites": [
      "http://www.berglhuette.it"
    ]
  },
  {
    "id": "1638",
    "name": "Biberacher Hütte",
    "elevation": "1846 m",
    "link": "https://www.alpenverein.at/huetten/index.php?huette_nr=1638",
    "phone": "+43 5519 257",
    "lat": 47.257777777778,
    "lon": 10.028611111111,
    "gebirgsgruppe": "Lechquellengebirge",
    "bundesland": "Vorarlberg",
    "hutReservationId": "222",
    "websites": [
      "http://dav-biberach.de/biberacher-huette"
    ]
  },
  {
    "id": "1642",
    "name": "Chamanna d Es-cha",
    "elevation": null,
    "link": "https://www.alpenverein.at/huetten/index.php?huette_nr=1642",
    "phone": "+41/81/8541755",
    "lat": 46.6113333333333,
    "lon": 9.90293333333333,
    "gebirgsgruppe": "Schweizer Voralpen / Zentral",
    "bundesland": "Schweiz",
    "hutReservationId": null,
    "websites": [
      "http://www.es-cha.com"
    ]
  },
  {
    "id": "1648",
    "name": "Gauertal Haus",
    "elevation": null,
    "link": "https://www.alpenverein.at/huetten/index.php?huette_nr=1648",
    "phone": "+43/5556/73109",
    "lat": 47.0588166666667,
    "lon": 9.86441666666667,
    "gebirgsgruppe": "",
    "bundesland": "Vorarlberg",
    "hutReservationId": null,
    "websites": [
      "http://home.t-online.de/home/juergen.dieterich/g04.htm"
    ]
  },
  {
    "id": "1649",
    "name": "Wettersteinhütte",
    "elevation": "1717 m",
    "link": "https://www.alpenverein.at/huetten/index.php?huette_nr=1649",
    "phone": "+43/660/3462100",
    "lat": 47.3802,
    "lon": 11.1082,
    "gebirgsgruppe": "Wettersteingeb./Miemingerkette",
    "bundesland": "Tirol",
    "hutReservationId": null,
    "websites": []
  },
  {
    "id": "1650",
    "name": "Hochhörndler-Hütte",
    "elevation": "1809 m",
    "link": "https://www.alpenverein.at/huetten/index.php?huette_nr=1650",
    "phone": "+43/5354/52848",
    "lat": 47.4267833333333,
    "lon": 12.5525666666667,
    "gebirgsgruppe": "Kitzbüheler Alpen",
    "bundesland": "Tirol",
    "hutReservationId": null,
    "websites": [
      "http://www.fieberbrunn-tirol.com/hochhoerndl"
    ]
  },
  {
    "id": "1656",
    "name": "Widdersteinhütte",
    "elevation": null,
    "link": "https://www.alpenverein.at/huetten/index.php?huette_nr=1656",
    "phone": null,
    "lat": 47.27855,
    "lon": 10.1369333333333,
    "gebirgsgruppe": "",
    "bundesland": "Deutschland",
    "hutReservationId": null,
    "websites": [
      "http://www.hutten.be/Oostenrijk/htn-at-widderstein.html"
    ]
  },
  {
    "id": "1657",
    "name": "Toni-Lenz-Hütte",
    "elevation": "1550 m",
    "link": "https://www.alpenverein.at/huetten/index.php?huette_nr=1657",
    "phone": null,
    "lat": 47.71495,
    "lon": 13.0088833333333,
    "gebirgsgruppe": "Berchtesgadener Alpen",
    "bundesland": "Salzburg",
    "hutReservationId": null,
    "websites": [
      "http://www.eishoehle.net"
    ]
  },
  {
    "id": "1660",
    "name": "Haus Hammer",
    "elevation": "750 m",
    "link": "https://www.alpenverein.at/huetten/index.php?huette_nr=1660",
    "phone": "089/5517000",
    "lat": 47.703611111111,
    "lon": 11.940277777778,
    "gebirgsgruppe": "Bayerische Voralpen",
    "bundesland": "Deutschland",
    "hutReservationId": "282",
    "websites": [
      "http://www.davplus.de/haus-hammer"
    ]
  },
  {
    "id": "1663",
    "name": "Chavee-Hut",
    "elevation": "250 m",
    "link": "https://www.alpenverein.at/huetten/index.php?huette_nr=1663",
    "phone": "+32/83/655239",
    "lat": 50.381024,
    "lon": 4.97366,
    "gebirgsgruppe": "Ausseralpine Gebiete - Österr.",
    "bundesland": "Belgien",
    "hutReservationId": null,
    "websites": [
      "http://www.kbfvzw.be/infochaveehut"
    ]
  },
  {
    "id": "1664",
    "name": "Lalidererspitzen-Biwak (Konrad-Schuster-Biwak)",
    "elevation": "2500 m",
    "link": "https://www.alpenverein.at/huetten/index.php?huette_nr=1664",
    "phone": null,
    "lat": 47.390115,
    "lon": 11.503408,
    "gebirgsgruppe": "Karwendel",
    "bundesland": "Tirol",
    "hutReservationId": null,
    "websites": []
  },
  {
    "id": "1666",
    "name": "Gasthaus Mamauwiese",
    "elevation": null,
    "link": "https://www.alpenverein.at/huetten/index.php?huette_nr=1666",
    "phone": "+43/2634/7455",
    "lat": 47.80745,
    "lon": 15.8394166666667,
    "gebirgsgruppe": "",
    "bundesland": "",
    "hutReservationId": null,
    "websites": []
  },
  {
    "id": "1667",
    "name": "Alpengasthof Bodenbauer",
    "elevation": "0 m",
    "link": "https://www.alpenverein.at/huetten/index.php?huette_nr=1667",
    "phone": "+43/3861/8130",
    "lat": 47.5801333333333,
    "lon": 15.11285,
    "gebirgsgruppe": "Hochschwabgruppe",
    "bundesland": "Steiermark",
    "hutReservationId": null,
    "websites": [
      "http://www.der-bodenbauer.at/"
    ]
  },
  {
    "id": "1668",
    "name": "Roseggerhaus",
    "elevation": "1653 m",
    "link": "https://www.alpenverein.at/huetten/index.php?huette_nr=1668",
    "phone": "+43/3170/522",
    "lat": 47.5458,
    "lon": 15.7396833333333,
    "gebirgsgruppe": "Randgebirge östlich der Mur",
    "bundesland": "Steiermark",
    "hutReservationId": null,
    "websites": []
  },
  {
    "id": "1671",
    "name": "Filzmoosalm",
    "elevation": "1710 m",
    "link": "https://www.alpenverein.at/huetten/index.php?huette_nr=1671",
    "phone": "+43/6414/417",
    "lat": 47.2162,
    "lon": 13.2790166666667,
    "gebirgsgruppe": "",
    "bundesland": "Salzburg",
    "hutReservationId": null,
    "websites": []
  },
  {
    "id": "1672",
    "name": "Oberhütte",
    "elevation": "1860 m",
    "link": "https://www.alpenverein.at/huetten/index.php?huette_nr=1672",
    "phone": null,
    "lat": 47.2806833333333,
    "lon": 13.5998833333333,
    "gebirgsgruppe": "Schladminger Tauern",
    "bundesland": "",
    "hutReservationId": null,
    "websites": []
  },
  {
    "id": "1681",
    "name": "Kreuzwiesenalm",
    "elevation": "1924 m",
    "link": "https://www.alpenverein.at/huetten/index.php?huette_nr=1681",
    "phone": null,
    "lat": 46.752748,
    "lon": 11.804759,
    "gebirgsgruppe": "Dolomiten",
    "bundesland": "Italien/Südtirol",
    "hutReservationId": null,
    "websites": [
      "http://www.kreuzwiesenalm.com"
    ]
  },
  {
    "id": "1682",
    "name": "Tissihütte",
    "elevation": "2250 m",
    "link": "https://www.alpenverein.at/huetten/index.php?huette_nr=1682",
    "phone": "+39/437/721644",
    "lat": 46.3881,
    "lon": 12.0332833333333,
    "gebirgsgruppe": "Ausseralpine Gebiete - Österr.",
    "bundesland": "Italien/Südtirol",
    "hutReservationId": null,
    "websites": []
  },
  {
    "id": "1683",
    "name": "Rifugio Passo Duran",
    "elevation": "1605 m",
    "link": "https://www.alpenverein.at/huetten/index.php?huette_nr=1683",
    "phone": "+39/0437/65199",
    "lat": 46.32415,
    "lon": 12.0953,
    "gebirgsgruppe": "",
    "bundesland": "",
    "hutReservationId": null,
    "websites": [
      "http://www.dolomiti.it"
    ]
  },
  {
    "id": "1684",
    "name": "Pian de Fontana, Rifugio",
    "elevation": "1632 m",
    "link": "https://www.alpenverein.at/huetten/index.php?huette_nr=1684",
    "phone": "+39/335/6096819",
    "lat": 46.2618666666667,
    "lon": 12.1761833333333,
    "gebirgsgruppe": "Ausseralpine Gebiete - Österr.",
    "bundesland": "Italien/Südtirol",
    "hutReservationId": null,
    "websites": []
  },
  {
    "id": "1686",
    "name": "Mittelleggi Hütte",
    "elevation": null,
    "link": "https://www.alpenverein.at/huetten/index.php?huette_nr=1686",
    "phone": "+41/33/8530366",
    "lat": 46.5833666666667,
    "lon": 8.02258333333333,
    "gebirgsgruppe": "Berner Alpen",
    "bundesland": "Schweiz",
    "hutReservationId": null,
    "websites": []
  },
  {
    "id": "1691",
    "name": "Rifugio Auronzo",
    "elevation": null,
    "link": "https://www.alpenverein.at/huetten/index.php?huette_nr=1691",
    "phone": "+39/0435/62682",
    "lat": 46.6123,
    "lon": 12.2959333333333,
    "gebirgsgruppe": "Ausseralpine Gebiete - Österr.",
    "bundesland": "Italien",
    "hutReservationId": null,
    "websites": []
  },
  {
    "id": "1692",
    "name": "Stalder Hütte",
    "elevation": null,
    "link": "https://www.alpenverein.at/huetten/index.php?huette_nr=1692",
    "phone": "+43/5414/86116",
    "lat": 47.1569166666667,
    "lon": 10.7705166666667,
    "gebirgsgruppe": "Ötztaler Alpen",
    "bundesland": "Tirol",
    "hutReservationId": null,
    "websites": [
      "http://www.stalderhuette.at"
    ]
  },
  {
    "id": "1693",
    "name": "Gasthof Burkert",
    "elevation": null,
    "link": "https://www.alpenverein.at/huetten/index.php?huette_nr=1693",
    "phone": "+43/5252/6947",
    "lat": 47.2285,
    "lon": 10.9357666666667,
    "gebirgsgruppe": "",
    "bundesland": "Tirol",
    "hutReservationId": null,
    "websites": [
      "http://www.gasthof-burkert.at"
    ]
  },
  {
    "id": "1697",
    "name": "Berghaus Mattajoch",
    "elevation": "1600 m",
    "link": "https://www.alpenverein.at/huetten/index.php?huette_nr=1697",
    "phone": null,
    "lat": 47.1632,
    "lon": 9.65873333333333,
    "gebirgsgruppe": "Rätikon",
    "bundesland": "Vorarlberg",
    "hutReservationId": null,
    "websites": [
      "http://www.gamp.at"
    ]
  },
  {
    "id": "1698",
    "name": "Spechtenschmiede",
    "elevation": null,
    "link": "https://www.alpenverein.at/huetten/index.php?huette_nr=1698",
    "phone": "+43/6221/8397",
    "lat": 47.8001166666667,
    "lon": 13.1530333333333,
    "gebirgsgruppe": "",
    "bundesland": "Salzburg",
    "hutReservationId": null,
    "websites": [
      "http://www.oenj.at/spechtenschmiede"
    ]
  },
  {
    "id": "1699",
    "name": "Mayerlehenhütte",
    "elevation": null,
    "link": "https://www.alpenverein.at/huetten/index.php?huette_nr=1699",
    "phone": null,
    "lat": 47.6851333333333,
    "lon": 13.3035166666667,
    "gebirgsgruppe": "",
    "bundesland": "Salzburg",
    "hutReservationId": null,
    "websites": [
      "http://www.salzburgnet.com/50111194e0142d239/504766952508ea801/index.html"
    ]
  },
  {
    "id": "1712",
    "name": "Ferienhütte Hansbauer",
    "elevation": "1200 m",
    "link": "https://www.alpenverein.at/huetten/index.php?huette_nr=1712",
    "phone": null,
    "lat": 47.3478833333333,
    "lon": 14.3263833333333,
    "gebirgsgruppe": "Rottenmanner und Wölzer Tauern",
    "bundesland": "Steiermark",
    "hutReservationId": null,
    "websites": [
      "http://www.urlaub-anbieter.com/ferienhuette.htm"
    ]
  },
  {
    "id": "1718",
    "name": "Haus Grabs",
    "elevation": null,
    "link": "https://www.alpenverein.at/huetten/index.php?huette_nr=1718",
    "phone": null,
    "lat": 47.0621833333333,
    "lon": 9.88703333333333,
    "gebirgsgruppe": "",
    "bundesland": "Vorarlberg",
    "hutReservationId": null,
    "websites": [
      "http://www.grabs.at"
    ]
  },
  {
    "id": "1719",
    "name": "Leckfeldalm",
    "elevation": "1900 m",
    "link": "https://www.alpenverein.at/huetten/index.php?huette_nr=1719",
    "phone": null,
    "lat": 46.7203833333333,
    "lon": 12.4130666666667,
    "gebirgsgruppe": "Karnischer Hauptkamm",
    "bundesland": "Tirol",
    "hutReservationId": null,
    "websites": [
      "http://www.leckfeldalm.at"
    ]
  },
  {
    "id": "1726",
    "name": "Feistritzer Alm",
    "elevation": "0 m",
    "link": "https://www.alpenverein.at/huetten/index.php?huette_nr=1726",
    "phone": null,
    "lat": 46.5600833333333,
    "lon": 13.5073333333333,
    "gebirgsgruppe": "Karnischer Hauptkamm",
    "bundesland": "Kärnten",
    "hutReservationId": null,
    "websites": []
  },
  {
    "id": "1736",
    "name": "Naturfreundehaus &quot;Rote Grube&quot;",
    "elevation": null,
    "link": "https://www.alpenverein.at/huetten/index.php?huette_nr=1736",
    "phone": "+49/3773/58019",
    "lat": 50.4750333333333,
    "lon": 12.69235,
    "gebirgsgruppe": "",
    "bundesland": "Deutschland",
    "hutReservationId": null,
    "websites": []
  },
  {
    "id": "1740",
    "name": "Gästehaus Hubertus",
    "elevation": "0 m",
    "link": "https://www.alpenverein.at/huetten/index.php?huette_nr=1740",
    "phone": "+43/4733/286",
    "lat": 46.9537333333333,
    "lon": 13.5057166666667,
    "gebirgsgruppe": "Ankogelgruppe",
    "bundesland": "Kärnten",
    "hutReservationId": null,
    "websites": [
      "http://www.gaestehaushubertus.at"
    ]
  },
  {
    "id": "1742",
    "name": "Halleiner Hütte",
    "elevation": "1150 m",
    "link": "https://www.alpenverein.at/huetten/index.php?huette_nr=1742",
    "phone": "+43/6240/21702",
    "lat": 47.6901666666667,
    "lon": 13.1859333,
    "gebirgsgruppe": "Salzkammergut-Berge",
    "bundesland": "Salzburg",
    "hutReservationId": null,
    "websites": [
      "http://www.halleinerhaus.at"
    ]
  },
  {
    "id": "1743",
    "name": "Tiefrastenhütte",
    "elevation": "2312 m",
    "link": "https://www.alpenverein.at/huetten/index.php?huette_nr=1743",
    "phone": "+39/334/9896370",
    "lat": 46.8762666666667,
    "lon": 11.7815833333333,
    "gebirgsgruppe": "Zillertaler Alpen",
    "bundesland": "Italien/Südtirol",
    "hutReservationId": "301",
    "websites": [
      "http://www.tiefrastenhuette.it"
    ]
  },
  {
    "id": "1745",
    "name": "Drei Zinnen Hütte (Rif. A. Locatelli)",
    "elevation": "2405 m",
    "link": "https://www.alpenverein.at/huetten/index.php?huette_nr=1745",
    "phone": "+39/0474/972002",
    "lat": 46.637,
    "lon": 12.3102833333333,
    "gebirgsgruppe": "Dolomiten",
    "bundesland": "Italien",
    "hutReservationId": null,
    "websites": [
      "http://www.dreizinnenhuette.com"
    ]
  },
  {
    "id": "1750",
    "name": "Gjaid Alm",
    "elevation": null,
    "link": "https://www.alpenverein.at/huetten/index.php?huette_nr=1750",
    "phone": null,
    "lat": 47.5179,
    "lon": 13.6699,
    "gebirgsgruppe": "Dachsteingebirge",
    "bundesland": "Oberösterreich",
    "hutReservationId": null,
    "websites": []
  },
  {
    "id": "1751",
    "name": "Dürrensteinhütte (Rif. Vallandro)",
    "elevation": "2040 m",
    "link": "https://www.alpenverein.at/huetten/index.php?huette_nr=1751",
    "phone": "+39/0474/972505",
    "lat": 46.6419166666667,
    "lon": 12.19595,
    "gebirgsgruppe": "Dolomiten",
    "bundesland": "Italien/Südtirol",
    "hutReservationId": null,
    "websites": []
  },
  {
    "id": "1753",
    "name": "Grüntalkogel-Hütte",
    "elevation": "886 m",
    "link": "https://www.alpenverein.at/huetten/index.php?huette_nr=1753",
    "phone": "+43/664/9246161",
    "lat": 48.020477,
    "lon": 15.327221,
    "gebirgsgruppe": "Türnitzer Alpen",
    "bundesland": "Niederösterreich",
    "hutReservationId": null,
    "websites": [
      "http://www.alpenverein.at/melk"
    ]
  },
  {
    "id": "1754",
    "name": "Rifugio Quintino Sella",
    "elevation": null,
    "link": "https://www.alpenverein.at/huetten/index.php?huette_nr=1754",
    "phone": "+39/0125/366113",
    "lat": 45.9012833333333,
    "lon": 7.79298333333333,
    "gebirgsgruppe": "Ausseralpine Gebiete - Österr.",
    "bundesland": "Italien",
    "hutReservationId": null,
    "websites": []
  },
  {
    "id": "1758",
    "name": "Bietschhornhütte",
    "elevation": null,
    "link": "https://www.alpenverein.at/huetten/index.php?huette_nr=1758",
    "phone": null,
    "lat": 46.3950166666667,
    "lon": 7.81711666666667,
    "gebirgsgruppe": "",
    "bundesland": "Schweiz",
    "hutReservationId": null,
    "websites": []
  },
  {
    "id": "1771",
    "name": "Schnepfegg-Selbstversorgerhütte",
    "elevation": "885 m",
    "link": "https://www.alpenverein.at/huetten/index.php?huette_nr=1771",
    "phone": null,
    "lat": 47.356708,
    "lon": 9.945507,
    "gebirgsgruppe": "Bregenzerwaldgebirge",
    "bundesland": "Vorarlberg",
    "hutReservationId": null,
    "websites": [
      "http://www.xn--andis-bnt-w9a.at/24672-alpenvereinshaus/",
      "http://www.alpenverein.at/vorarlberg"
    ]
  },
  {
    "id": "1774",
    "name": "Gamskogelhütte",
    "elevation": "1095 m",
    "link": "https://www.alpenverein.at/huetten/index.php?huette_nr=1774",
    "phone": null,
    "lat": 47.3350833333333,
    "lon": 12.2226666666667,
    "gebirgsgruppe": "Kitzbüheler Alpen",
    "bundesland": "Tirol",
    "hutReservationId": null,
    "websites": [
      "http://www.gamskogelhuette.com"
    ]
  },
  {
    "id": "1775",
    "name": "Teplitzer Hütte (Rif. Vedretta Pendente)",
    "elevation": "2586 m",
    "link": "https://www.alpenverein.at/huetten/index.php?huette_nr=1775",
    "phone": null,
    "lat": 46.955517,
    "lon": 11.2274,
    "gebirgsgruppe": "Stubaier Alpen",
    "bundesland": "Italien/Südtirol",
    "hutReservationId": null,
    "websites": [
      "http://www.teplitzerhuette.com"
    ]
  },
  {
    "id": "1776",
    "name": "Berghaus Hinterreute",
    "elevation": "1000 m",
    "link": "https://www.alpenverein.at/huetten/index.php?huette_nr=1776",
    "phone": "49/711/7696366",
    "lat": 47.6014,
    "lon": 10.4407833333333,
    "gebirgsgruppe": "Allgäuer Alpen",
    "bundesland": "Deutschland",
    "hutReservationId": null,
    "websites": [
      "http://www.alpenverein-schwaben.de"
    ]
  },
  {
    "id": "1777",
    "name": "Berg- u. Skiheim Brixen i.Th.",
    "elevation": "800 m",
    "link": "https://www.alpenverein.at/huetten/index.php?huette_nr=1777",
    "phone": "0043 / 5334 - 85 42",
    "lat": 47.454166666667,
    "lon": 12.260555555556,
    "gebirgsgruppe": "Kitzbüheler Alpen",
    "bundesland": "Tirol",
    "hutReservationId": "475",
    "websites": [
      "http://www.alpenverein-regensburg.de"
    ]
  },
  {
    "id": "1778",
    "name": "Friedl-Mutschlechner-Haus",
    "elevation": "1360 m",
    "link": "https://www.alpenverein.at/huetten/index.php?huette_nr=1778",
    "phone": "+39/0471/978141",
    "lat": 46.8042333333333,
    "lon": 12.3787333333333,
    "gebirgsgruppe": "Villgratner Berge",
    "bundesland": "Tirol",
    "hutReservationId": null,
    "websites": []
  },
  {
    "id": "1785",
    "name": "Alpenvereinshaus Donaulände (Sepp-Brezina-Haus)",
    "elevation": "180 m",
    "link": "https://www.alpenverein.at/huetten/index.php?huette_nr=1785",
    "phone": "0676/4826886",
    "lat": 48.333392,
    "lon": 16.046319,
    "gebirgsgruppe": "Ausseralpine Gebiete - Österr.",
    "bundesland": "Niederösterreich",
    "hutReservationId": null,
    "websites": []
  },
  {
    "id": "1786",
    "name": "Chamonna Lischana CAS",
    "elevation": "2500 m",
    "link": "https://www.alpenverein.at/huetten/index.php?huette_nr=1786",
    "phone": "+41 81 864 95 44 (von 8-18 und 20-22 Uhr)",
    "lat": 46.76555,
    "lon": 10.33445,
    "gebirgsgruppe": "Bündner Alpen",
    "bundesland": "Schweiz",
    "hutReservationId": null,
    "websites": [
      "http://www.lischanahuette.ch"
    ]
  },
  {
    "id": "1788",
    "name": "Birkkarhütte",
    "elevation": "2640 m",
    "link": "https://www.alpenverein.at/huetten/index.php?huette_nr=1788",
    "phone": null,
    "lat": 47.411666666667,
    "lon": 11.435555555556,
    "gebirgsgruppe": "Karwendel",
    "bundesland": "Tirol",
    "hutReservationId": null,
    "websites": []
  },
  {
    "id": "1789",
    "name": "Alte Traunsteiner Hütte",
    "elevation": "1580 m",
    "link": "https://www.alpenverein.at/huetten/index.php?huette_nr=1789",
    "phone": "0049/861/69399",
    "lat": 47.625277777778,
    "lon": 12.793333333333,
    "gebirgsgruppe": "Berchtesgadener Alpen",
    "bundesland": "Salzburg",
    "hutReservationId": null,
    "websites": [
      "http://www.alpenverein-traunstein.de"
    ]
  },
  {
    "id": "1790",
    "name": "Fritz-Putz-Hütte",
    "elevation": "1185 m",
    "link": "https://www.alpenverein.at/huetten/index.php?huette_nr=1790",
    "phone": "08362/507187",
    "lat": 47.537777777778,
    "lon": 10.773611111111,
    "gebirgsgruppe": "Ammergauer Alpen",
    "bundesland": "Deutschland",
    "hutReservationId": "83",
    "websites": [
      "http://www.alpenverein-fuessen.de"
    ]
  },
  {
    "id": "1792",
    "name": "Hallerangeralm",
    "elevation": "1774 m",
    "link": "https://www.alpenverein.at/huetten/index.php?huette_nr=1792",
    "phone": "+43/5213/5119 (Winter)",
    "lat": 47.3564833333333,
    "lon": 11.4798333333333,
    "gebirgsgruppe": "Karwendel",
    "bundesland": "Tirol",
    "hutReservationId": null,
    "websites": [
      "http://www.halleranger-alm.at"
    ]
  },
  {
    "id": "1793",
    "name": "Haus Missen",
    "elevation": "854 m",
    "link": "https://www.alpenverein.at/huetten/index.php?huette_nr=1793",
    "phone": "0049/731/31845",
    "lat": 47.605,
    "lon": 10.108611111111,
    "gebirgsgruppe": "Allgäuer Alpen",
    "bundesland": "Tirol",
    "hutReservationId": null,
    "websites": []
  },
  {
    "id": "1794",
    "name": "Rauhjoch-Biwak",
    "elevation": "2708 m",
    "link": "https://www.alpenverein.at/huetten/index.php?huette_nr=1794",
    "phone": null,
    "lat": 46.8206833333333,
    "lon": 11.0998166666667,
    "gebirgsgruppe": "Ötztaler Alpen",
    "bundesland": "Italien/Südtirol",
    "hutReservationId": null,
    "websites": []
  },
  {
    "id": "1795",
    "name": "Neue Bubenreuter Hütte",
    "elevation": "950 m",
    "link": "https://www.alpenverein.at/huetten/index.php?huette_nr=1795",
    "phone": "0043/6549/7855",
    "lat": 47.292777777778,
    "lon": 12.678333333333,
    "gebirgsgruppe": "Kitzbüheler Alpen",
    "bundesland": "Tirol",
    "hutReservationId": null,
    "websites": [
      "http://www.dav-sektion-eger-und-egerland.de"
    ]
  },
  {
    "id": "1796",
    "name": "Schwand-Alpe",
    "elevation": "936 m",
    "link": "https://www.alpenverein.at/huetten/index.php?huette_nr=1796",
    "phone": "0731/9216777",
    "lat": 47.545277777778,
    "lon": 10.083055555556,
    "gebirgsgruppe": "Allgäuer Alpen",
    "bundesland": "Tirol",
    "hutReservationId": null,
    "websites": [
      "http://www.dav-ulm.de"
    ]
  },
  {
    "id": "1797",
    "name": "Wasseralm in der Röth",
    "elevation": "1423 m",
    "link": "https://www.alpenverein.at/huetten/index.php?huette_nr=1797",
    "phone": "08652/6091160",
    "lat": 47.494722222222,
    "lon": 13.006388888889,
    "gebirgsgruppe": "Berchtesgadener Alpen",
    "bundesland": "Deutschland",
    "hutReservationId": null,
    "websites": [
      "http://www.dav-berchtesgaden.de"
    ]
  },
  {
    "id": "1798",
    "name": "Watzmann-Ostwand-Biwak",
    "elevation": "2380 m",
    "link": "https://www.alpenverein.at/huetten/index.php?huette_nr=1798",
    "phone": null,
    "lat": 47.547777777778,
    "lon": 12.920555555556,
    "gebirgsgruppe": "Berchtesgadener Alpen",
    "bundesland": "Deutschland",
    "hutReservationId": null,
    "websites": []
  },
  {
    "id": "1799",
    "name": "Watzmann-Ostwand-Hütte",
    "elevation": "623 m",
    "link": "https://www.alpenverein.at/huetten/index.php?huette_nr=1799",
    "phone": null,
    "lat": 47.545833333333,
    "lon": 12.970833333333,
    "gebirgsgruppe": "Berchtesgadener Alpen",
    "bundesland": "Deutschland",
    "hutReservationId": "536",
    "websites": [
      "http://www.dav-berchtesgaden.de"
    ]
  },
  {
    "id": "1800",
    "name": "Fidelitashütte",
    "elevation": "2883 m",
    "link": "https://www.alpenverein.at/huetten/index.php?huette_nr=1800",
    "phone": null,
    "lat": 46.8057333333333,
    "lon": 10.9888833333333,
    "gebirgsgruppe": "Ötztaler Alpen",
    "bundesland": "Tirol",
    "hutReservationId": null,
    "websites": [
      "http://alpenverein-karlsruhe.de/huetten/fidelitashuette"
    ]
  },
  {
    "id": "1801",
    "name": "Biwak Tablander Warter",
    "elevation": "2610 m",
    "link": "https://www.alpenverein.at/huetten/index.php?huette_nr=1801",
    "phone": null,
    "lat": 46.58585,
    "lon": 10.9880833333333,
    "gebirgsgruppe": "Ortler-Gruppe",
    "bundesland": "Italien/Südtirol",
    "hutReservationId": null,
    "websites": [
      "http://www.alpenverein.it"
    ]
  },
  {
    "id": "1803",
    "name": "Edelrauthütte (Rif. Ponte di Ghiaccio)",
    "elevation": "2545 m",
    "link": "https://www.alpenverein.at/huetten/index.php?huette_nr=1803",
    "phone": "+39/0474/653230",
    "lat": 46.947104,
    "lon": 11.739037,
    "gebirgsgruppe": "Zillertaler Alpen",
    "bundesland": "Italien/Südtirol",
    "hutReservationId": null,
    "websites": [
      "http://www.edelrauthuette.it"
    ]
  },
  {
    "id": "1804",
    "name": "Flaggerschartenhütte/Marburgerhütte (Rif. Forcella Vallaga)",
    "elevation": "2481 m",
    "link": "https://www.alpenverein.at/huetten/index.php?huette_nr=1804",
    "phone": null,
    "lat": 46.771614,
    "lon": 11.487653,
    "gebirgsgruppe": "Sarntaler Alpen",
    "bundesland": "Italien/Südtirol",
    "hutReservationId": null,
    "websites": [
      "http://www.flaggerscharten.it"
    ]
  },
  {
    "id": "1805",
    "name": "Grasleitenhütte (Rif. Bergamo)",
    "elevation": "2134 m",
    "link": "https://www.alpenverein.at/huetten/index.php?huette_nr=1805",
    "phone": "+39/0471/1632320",
    "lat": 46.484956,
    "lon": 11.629779,
    "gebirgsgruppe": "Dolomiten",
    "bundesland": "Italien/Südtirol",
    "hutReservationId": null,
    "websites": [
      "http://www.grasleitenhuette.com"
    ]
  },
  {
    "id": "1806",
    "name": "Regensburger Hütte (Rif. Firenze)",
    "elevation": "2039 m",
    "link": "https://www.alpenverein.at/huetten/index.php?huette_nr=1806",
    "phone": "+39/0471/796307",
    "lat": 46.587434,
    "lon": 11.758318,
    "gebirgsgruppe": "Dolomiten",
    "bundesland": "Italien/Südtirol",
    "hutReservationId": null,
    "websites": [
      "http://www.regensburgerhuette.com"
    ]
  },
  {
    "id": "1807",
    "name": "Schaubachhütte (Rif. Città di Milano)",
    "elevation": "2581 m",
    "link": "https://www.alpenverein.at/huetten/index.php?huette_nr=1807",
    "phone": null,
    "lat": 46.490454,
    "lon": 10.597281,
    "gebirgsgruppe": "Ortler-Gruppe",
    "bundesland": "Italien/Südtirol",
    "hutReservationId": null,
    "websites": []
  },
  {
    "id": "1808",
    "name": "Düsseldorfer Hütte (Rif. Serristori)",
    "elevation": "2721 m",
    "link": "https://www.alpenverein.at/huetten/index.php?huette_nr=1808",
    "phone": null,
    "lat": 46.547308,
    "lon": 10.617575,
    "gebirgsgruppe": "Ortler-Gruppe",
    "bundesland": "Italien/Südtirol",
    "hutReservationId": null,
    "websites": [
      "http://www.duesseldorferhuette.com"
    ]
  },
  {
    "id": "1810",
    "name": "Zsigmondyhütte (Rif. Comici)",
    "elevation": "2224 m",
    "link": "https://www.alpenverein.at/huetten/index.php?huette_nr=1810",
    "phone": "+39/0474/710358",
    "lat": 46.6284,
    "lon": 12.3578666666667,
    "gebirgsgruppe": "Dolomiten",
    "bundesland": "Italien/Südtirol",
    "hutReservationId": "337",
    "websites": [
      "http://www.zsigmondyhuette.com"
    ]
  },
  {
    "id": "1811",
    "name": "Kölner Hütte (Rif. Fronza alle Coronelle)",
    "elevation": "2337 m",
    "link": "https://www.alpenverein.at/huetten/index.php?huette_nr=1811",
    "phone": "+39/0471/612033",
    "lat": 46.4427,
    "lon": 11.61205,
    "gebirgsgruppe": "Dolomiten",
    "bundesland": "Italien/Südtirol",
    "hutReservationId": null,
    "websites": [
      "http://www.rifugiofronza.com"
    ]
  },
  {
    "id": "1812",
    "name": "Langkofelhütte (Rif. Vicenza)",
    "elevation": "2253 m",
    "link": "https://www.alpenverein.at/huetten/index.php?huette_nr=1812",
    "phone": "+39/0471/792323",
    "lat": 46.519902,
    "lon": 11.723605,
    "gebirgsgruppe": "Dolomiten",
    "bundesland": "Italien/Südtirol",
    "hutReservationId": null,
    "websites": [
      "http://www.langkofelhuette.com"
    ]
  },
  {
    "id": "1816",
    "name": "Kampthaler-Hütte",
    "elevation": "313 m",
    "link": "https://www.alpenverein.at/huetten/index.php?huette_nr=1816",
    "phone": null,
    "lat": 48.131607,
    "lon": 16.199331,
    "gebirgsgruppe": "Wienerwald",
    "bundesland": "Niederösterreich",
    "hutReservationId": "177",
    "websites": [
      "http://www.alpenverein-edelweiss.at"
    ]
  },
  {
    "id": "1826",
    "name": "Dr-Hugo-Beck-Haus",
    "elevation": "1260 m",
    "link": "https://www.alpenverein.at/huetten/index.php?huette_nr=1826",
    "phone": null,
    "lat": 47.58395,
    "lon": 13.0163833333333,
    "gebirgsgruppe": "Berchtesgadener Alpen",
    "bundesland": "Deutschland",
    "hutReservationId": null,
    "websites": [
      "http://www.dr-hugo-beck-haus.de"
    ]
  },
  {
    "id": "1827",
    "name": "Schneibsteinhaus",
    "elevation": "1670 m",
    "link": "https://www.alpenverein.at/huetten/index.php?huette_nr=1827",
    "phone": null,
    "lat": 47.5721833333333,
    "lon": 13.03925,
    "gebirgsgruppe": "Berchtesgadener Alpen",
    "bundesland": "Deutschland",
    "hutReservationId": null,
    "websites": [
      "http://www.schneibsteinhaus.de"
    ]
  },
  {
    "id": "1828",
    "name": "Königsbachalm",
    "elevation": "1200 m",
    "link": "https://www.alpenverein.at/huetten/index.php?huette_nr=1828",
    "phone": null,
    "lat": 47.5659666666667,
    "lon": 13.0127833333333,
    "gebirgsgruppe": "Berchtesgadener Alpen",
    "bundesland": "Deutschland",
    "hutReservationId": null,
    "websites": [
      "http://de.wikipedia.org/wiki/K%C3%B6nigsbachalm"
    ]
  },
  {
    "id": "1829",
    "name": "Eiger-Ostegghütte",
    "elevation": "2320 m",
    "link": "https://www.alpenverein.at/huetten/index.php?huette_nr=1829",
    "phone": null,
    "lat": 46.6003833333333,
    "lon": 8.04116666666667,
    "gebirgsgruppe": "Berner Alpen",
    "bundesland": "Schweiz",
    "hutReservationId": null,
    "websites": [
      "http://www.vs-wallis.ch/bern/huetverz/eigerostegg.html"
    ]
  },
  {
    "id": "1830",
    "name": "Rifugio Maria Luisa",
    "elevation": "2150 m",
    "link": "https://www.alpenverein.at/huetten/index.php?huette_nr=1830",
    "phone": "+39(0)32463086",
    "lat": 46.4346833333333,
    "lon": 8.42786666666667,
    "gebirgsgruppe": "Ausseralpine Gebiete - Österr.",
    "bundesland": "Italien",
    "hutReservationId": null,
    "websites": [
      "http://www.rifugiomarialuisa.it"
    ]
  },